[
  {
    "pk": 1, 
    "model": "xtf.geopoint", 
    "fields": {
      "lon": -124.162267, 
      "object_id": 1, 
      "place": "825 5th St, Eureka, CA 95501, USA", 
      "content_type": [
        "xtf", 
        "arksetmember"
      ], 
      "lat": 40.802877000000002, 
      "exact": true
    }
  }, 
  {
    "pk": 2, 
    "model": "xtf.geopoint", 
    "fields": {
      "lon": -122.4559905, 
      "object_id": 2, 
      "place": "114 E Spain St, Sonoma, CA 95476, USA", 
      "content_type": [
        "xtf", 
        "arksetmember"
      ], 
      "lat": 38.293538499999997, 
      "exact": true
    }
  }, 
  {
    "pk": 3, 
    "model": "xtf.geopoint", 
    "fields": {
      "lon": -122.45920340000001, 
      "object_id": 3, 
      "place": "1st St W, Sonoma, CA 95476, USA", 
      "content_type": [
        "xtf", 
        "arksetmember"
      ], 
      "lat": 38.290619200000002, 
      "exact": true
    }
  }, 
  {
    "pk": 4, 
    "model": "xtf.geopoint", 
    "fields": {
      "lon": -122.2725334, 
      "object_id": 4, 
      "place": "1 Frank H Ogawa Plaza, Oakland, CA 94612, USA", 
      "content_type": [
        "xtf", 
        "arksetmember"
      ], 
      "lat": 37.805315499999999, 
      "exact": true
    }
  }, 
  {
    "pk": 5, 
    "model": "xtf.geopoint", 
    "fields": {
      "lon": -120.664817, 
      "object_id": 5, 
      "place": "751 Palm St, San Luis Obispo, CA 93401, USA", 
      "content_type": [
        "xtf", 
        "arksetmember"
      ], 
      "lat": 35.280577000000001, 
      "exact": true
    }
  }, 
  {
    "pk": 6, 
    "model": "xtf.geopoint", 
    "fields": {
      "lon": -119.1810595, 
      "object_id": 6, 
      "place": "424 S C St, Oxnard, CA 93030, USA", 
      "content_type": [
        "xtf", 
        "arksetmember"
      ], 
      "lat": 34.198810999999999, 
      "exact": true
    }
  }, 
  {
    "pk": 7, 
    "model": "xtf.geopoint", 
    "fields": {
      "lon": -121.89095469999999, 
      "object_id": 7, 
      "place": "500 Church St, Monterey, CA 93940, USA", 
      "content_type": [
        "xtf", 
        "arksetmember"
      ], 
      "lat": 36.596026700000003, 
      "exact": true
    }
  }, 
  {
    "pk": 8, 
    "model": "xtf.geopoint", 
    "fields": {
      "lon": -121.537338495255, 
      "object_id": 8, 
      "place": "406 2nd St, San Juan Bautista, CA 95045, USA", 
      "content_type": [
        "xtf", 
        "arksetmember"
      ], 
      "lat": 36.845868819676902, 
      "exact": true
    }
  }, 
  {
    "pk": 9, 
    "model": "xtf.geopoint", 
    "fields": {
      "lon": -119.702665, 
      "object_id": 9, 
      "place": "1100 Anacapa St, Santa Barbara, CA 93101, USA", 
      "content_type": [
        "xtf", 
        "arksetmember"
      ], 
      "lat": 34.424098000000001, 
      "exact": true
    }
  }, 
  {
    "pk": 10, 
    "model": "xtf.geopoint", 
    "fields": {
      "lon": -121.537255346775, 
      "object_id": 10, 
      "place": "406 2nd St, San Juan Bautista, CA 95045, USA", 
      "content_type": [
        "xtf", 
        "arksetmember"
      ], 
      "lat": 36.845817305052798, 
      "exact": true
    }
  }, 
  {
    "pk": 11, 
    "model": "xtf.geopoint", 
    "fields": {
      "lon": -121.91951, 
      "object_id": 11, 
      "place": "3080 Rio Rd, Carmel-by-the-Sea, CA 93923, USA", 
      "content_type": [
        "xtf", 
        "arksetmember"
      ], 
      "lat": 36.543346, 
      "exact": true
    }
  }, 
  {
    "pk": 12, 
    "model": "xtf.geopoint", 
    "fields": {
      "lon": -121.53716180000001, 
      "object_id": 12, 
      "place": "406 2nd St, San Juan Bautista, CA 95045, USA", 
      "content_type": [
        "xtf", 
        "arksetmember"
      ], 
      "lat": 36.845779800000003, 
      "exact": true
    }
  }, 
  {
    "pk": 13, 
    "model": "xtf.geopoint", 
    "fields": {
      "lon": -120.69788699999999, 
      "object_id": 13, 
      "place": "775 Mission St, San Miguel, CA 93451, USA", 
      "content_type": [
        "xtf", 
        "arksetmember"
      ], 
      "lat": 35.744346999999998, 
      "exact": true
    }
  }, 
  {
    "pk": 14, 
    "model": "xtf.geopoint", 
    "fields": {
      "lon": -118.4951512, 
      "object_id": 14, 
      "place": "Santa Monica Blvd & 4th St, Santa Monica, CA 90401, USA", 
      "content_type": [
        "xtf", 
        "arksetmember"
      ], 
      "lat": 34.0164215, 
      "exact": true
    }
  }, 
  {
    "pk": 15, 
    "model": "xtf.geopoint", 
    "fields": {
      "lon": -118.243039, 
      "object_id": 15, 
      "place": "200 N Spring St, Los Angeles, CA 90012, USA", 
      "content_type": [
        "xtf", 
        "arksetmember"
      ], 
      "lat": 34.053424, 
      "exact": true
    }
  }, 
  {
    "pk": 16, 
    "model": "xtf.geopoint", 
    "fields": {
      "lon": -118.2804637, 
      "object_id": 16, 
      "place": "S Beacon St, San Pedro, CA 90731, USA", 
      "content_type": [
        "xtf", 
        "arksetmember"
      ], 
      "lat": 33.735993999999998, 
      "exact": false
    }
  }, 
  {
    "pk": 17, 
    "model": "xtf.geopoint", 
    "fields": {
      "lon": -117.663078010082, 
      "object_id": 17, 
      "place": "26801 Ortega Hwy, San Juan Capistrano, CA 92675, USA", 
      "content_type": [
        "xtf", 
        "arksetmember"
      ], 
      "lat": 33.502131102941497, 
      "exact": true
    }
  }, 
  {
    "pk": 18, 
    "model": "xtf.geopoint", 
    "fields": {
      "lon": -117.6627615, 
      "object_id": 18, 
      "place": "26801 Ortega Hwy, San Juan Capistrano, CA 92675, USA", 
      "content_type": [
        "xtf", 
        "arksetmember"
      ], 
      "lat": 33.501939299999997, 
      "exact": true
    }
  }, 
  {
    "pk": 19, 
    "model": "xtf.geopoint", 
    "fields": {
      "lon": -117.662946581841, 
      "object_id": 19, 
      "place": "26801 Ortega Hwy, San Juan Capistrano, CA 92675, USA", 
      "content_type": [
        "xtf", 
        "arksetmember"
      ], 
      "lat": 33.502037165648403, 
      "exact": true
    }
  }, 
  {
    "pk": 20, 
    "model": "xtf.geopoint", 
    "fields": {
      "lon": -117.9123938, 
      "object_id": 20, 
      "place": "202 E Lincoln Ave, Anaheim, CA 92805, USA", 
      "content_type": [
        "xtf", 
        "arksetmember"
      ], 
      "lat": 33.8370034, 
      "exact": true
    }
  }, 
  {
    "pk": 21, 
    "model": "xtf.geopoint", 
    "fields": {
      "lon": -117.8675523, 
      "object_id": 21, 
      "place": "219 N Main St, Santa Ana, CA 92701, USA", 
      "content_type": [
        "xtf", 
        "arksetmember"
      ], 
      "lat": 33.746939400000002, 
      "exact": true
    }
  }, 
  {
    "pk": 22, 
    "model": "xtf.geopoint", 
    "fields": {
      "lon": -117.165171504021, 
      "object_id": 23, 
      "place": "Front St & W Broadway, San Diego, CA 92101, USA", 
      "content_type": [
        "xtf", 
        "arksetmember"
      ], 
      "lat": 32.715761037536403, 
      "exact": true
    }
  }, 
  {
    "pk": 23, 
    "model": "xtf.geopoint", 
    "fields": {
      "lon": -117.319779396057, 
      "object_id": 24, 
      "place": "San Luis Rey, Oceanside, CA, USA", 
      "content_type": [
        "xtf", 
        "arksetmember"
      ], 
      "lat": 33.232010960145203, 
      "exact": true
    }
  }, 
  {
    "pk": 24, 
    "model": "xtf.geopoint", 
    "fields": {
      "lon": -117.1601648, 
      "object_id": 25, 
      "place": "5th Ave & G St, San Diego, CA 92101, USA", 
      "content_type": [
        "xtf", 
        "arksetmember"
      ], 
      "lat": 32.712567499999999, 
      "exact": true
    }
  }, 
  {
    "pk": 25, 
    "model": "xtf.geopoint", 
    "fields": {
      "lon": -117.10619777441001, 
      "object_id": 26, 
      "place": "10818 San Diego Mission Rd, San Diego, CA 92120, USA", 
      "content_type": [
        "xtf", 
        "arksetmember"
      ], 
      "lat": 32.783819956180103, 
      "exact": true
    }
  }, 
  {
    "pk": 26, 
    "model": "xtf.geopoint", 
    "fields": {
      "lon": -117.10594089999999, 
      "object_id": 27, 
      "place": "10818 San Diego Mission Rd, San Diego, CA 92120, USA", 
      "content_type": [
        "xtf", 
        "arksetmember"
      ], 
      "lat": 32.783800599999999, 
      "exact": true
    }
  }, 
  {
    "pk": 27, 
    "model": "xtf.geopoint", 
    "fields": {
      "lon": -122.395409345627, 
      "object_id": 28, 
      "place": "1500 Court St, Redding, CA 96001, USA", 
      "content_type": [
        "xtf", 
        "arksetmember"
      ], 
      "lat": 40.582466932566099, 
      "exact": true
    }
  }, 
  {
    "pk": 28, 
    "model": "xtf.geopoint", 
    "fields": {
      "lon": -122.39547908306101, 
      "object_id": 29, 
      "place": "1500 Court St, Redding, CA 96001, USA", 
      "content_type": [
        "xtf", 
        "arksetmember"
      ], 
      "lat": 40.582686934510797, 
      "exact": true
    }
  }, 
  {
    "pk": 29, 
    "model": "xtf.geopoint", 
    "fields": {
      "lon": -121.07675999999999, 
      "object_id": 30, 
      "place": "101 Maple St, Auburn, CA 95603, USA", 
      "content_type": [
        "xtf", 
        "arksetmember"
      ], 
      "lat": 38.896518999999998, 
      "exact": true
    }
  }, 
  {
    "pk": 30, 
    "model": "xtf.geopoint", 
    "fields": {
      "lon": -120.38213810000001, 
      "object_id": 31, 
      "place": "Sonora, CA, USA", 
      "content_type": [
        "xtf", 
        "arksetmember"
      ], 
      "lat": 37.984091100000001, 
      "exact": false
    }
  }, 
  {
    "pk": 31, 
    "model": "xtf.geopoint", 
    "fields": {
      "lon": -121.48798048496199, 
      "object_id": 32, 
      "place": "Capitol Park, Sacramento, CA 95814, USA", 
      "content_type": [
        "xtf", 
        "arksetmember"
      ], 
      "lat": 38.575128580242101, 
      "exact": true
    }
  }, 
  {
    "pk": 32, 
    "model": "xtf.geopoint", 
    "fields": {
      "lon": -121.4953313, 
      "object_id": 33, 
      "place": "1315 10th St, Sacramento, CA 95814, USA", 
      "content_type": [
        "xtf", 
        "arksetmember"
      ], 
      "lat": 38.575943600000002, 
      "exact": true
    }
  }, 
  {
    "pk": 33, 
    "model": "xtf.geopoint", 
    "fields": {
      "lon": -121.5870603, 
      "object_id": 34, 
      "place": "2nd St & C St, Marysville, CA 95901, USA", 
      "content_type": [
        "xtf", 
        "arksetmember"
      ], 
      "lat": 39.137125300000001, 
      "exact": true
    }
  }, 
  {
    "pk": 34, 
    "model": "xtf.geopoint", 
    "fields": {
      "lon": -121.58795069999999, 
      "object_id": 35, 
      "place": "3rd St & Oak St, Marysville, CA 95901, USA", 
      "content_type": [
        "xtf", 
        "arksetmember"
      ], 
      "lat": 39.138196700000002, 
      "exact": true
    }
  }, 
  {
    "pk": 35, 
    "model": "xtf.geopoint", 
    "fields": {
      "lon": -119.6632091, 
      "object_id": 36, 
      "place": "1220 W Lacey Blvd, Hanford, CA 93230, USA", 
      "content_type": [
        "xtf", 
        "arksetmember"
      ], 
      "lat": 36.328148599999999, 
      "exact": false
    }
  }, 
  {
    "pk": 36, 
    "model": "xtf.geopoint", 
    "fields": {
      "lon": -119.3141535, 
      "object_id": 37, 
      "place": "221 S Mooney Blvd, Visalia, CA 93291, USA", 
      "content_type": [
        "xtf", 
        "arksetmember"
      ], 
      "lat": 36.328875500000002, 
      "exact": false
    }
  }, 
  {
    "pk": 37, 
    "model": "xtf.geopoint", 
    "fields": {
      "lon": -119.3431176, 
      "object_id": 38, 
      "place": "260 S M St, Tulare, CA 93274, USA", 
      "content_type": [
        "xtf", 
        "arksetmember"
      ], 
      "lat": 36.205741500000002, 
      "exact": false
    }
  }, 
  {
    "pk": 38, 
    "model": "xtf.geopoint", 
    "fields": {
      "lon": -119.0188041, 
      "object_id": 39, 
      "place": "Chester Ave & Truxtun Ave, Bakersfield, CA 93301, USA", 
      "content_type": [
        "xtf", 
        "arksetmember"
      ], 
      "lat": 35.373352300000001, 
      "exact": true
    }
  }, 
  {
    "pk": 39, 
    "model": "xtf.geopoint", 
    "fields": {
      "lon": -121.287961, 
      "object_id": 40, 
      "place": "222 E Weber Ave, Stockton, CA 95202, USA", 
      "content_type": [
        "xtf", 
        "arksetmember"
      ], 
      "lat": 37.953522, 
      "exact": true
    }
  }, 
  {
    "pk": 40, 
    "model": "xtf.geopoint", 
    "fields": {
      "lon": -119.228525, 
      "object_id": 41, 
      "place": "278 Main St, Bridgeport, CA 93517, USA", 
      "content_type": [
        "xtf", 
        "arksetmember"
      ], 
      "lat": 38.256244000000002, 
      "exact": true
    }
  }, 
  {
    "pk": 41, 
    "model": "xtf.geopoint", 
    "fields": {
      "lon": -118.20072412490801, 
      "object_id": 42, 
      "place": "168 N Edwards St, Independence, CA 93526, USA", 
      "content_type": [
        "xtf", 
        "arksetmember"
      ], 
      "lat": 36.804190737312098, 
      "exact": true
    }
  }, 
  {
    "pk": 42, 
    "model": "xtf.geopoint", 
    "fields": {
      "lon": -118.20048540830599, 
      "object_id": 43, 
      "place": "168 N Edwards St, Independence, CA 93526, USA", 
      "content_type": [
        "xtf", 
        "arksetmember"
      ], 
      "lat": 36.803804166288401, 
      "exact": true
    }
  }, 
  {
    "pk": 43, 
    "model": "xtf.geopoint", 
    "fields": {
      "lon": -119.9664368, 
      "object_id": 44, 
      "place": "5088 Bullion St, Mariposa, CA 95338, USA", 
      "content_type": [
        "xtf", 
        "arksetmember"
      ], 
      "lat": 37.487568799999998, 
      "exact": true
    }
  }, 
  {
    "pk": 44, 
    "model": "xtf.geopoint", 
    "fields": {
      "lon": -123.13515270000001, 
      "object_id": 45, 
      "place": "Jenner, CA 95450, USA", 
      "content_type": [
        "xtf", 
        "arksetmember"
      ], 
      "lat": 38.4846164, 
      "exact": true
    }
  }, 
  {
    "pk": 45, 
    "model": "xtf.geopoint", 
    "fields": {
      "lon": -122.71401419999999, 
      "object_id": 47, 
      "place": "Mendocino Ave & 4th St, Santa Rosa, CA 95401, USA", 
      "content_type": [
        "xtf", 
        "arksetmember"
      ], 
      "lat": 38.440438299999997, 
      "exact": false
    }
  }, 
  {
    "pk": 46, 
    "model": "xtf.geopoint", 
    "fields": {
      "lon": -122.7137257, 
      "object_id": 48, 
      "place": "Old Courthouse Square, Santa Rosa, CA 95404, USA", 
      "content_type": [
        "xtf", 
        "arksetmember"
      ], 
      "lat": 38.440180900000001, 
      "exact": false
    }
  }, 
  {
    "pk": 47, 
    "model": "xtf.geopoint", 
    "fields": {
      "lon": -122.7039932, 
      "object_id": 49, 
      "place": "4th St, Santa Rosa, CA, USA", 
      "content_type": [
        "xtf", 
        "arksetmember"
      ], 
      "lat": 38.4454742, 
      "exact": false
    }
  }, 
  {
    "pk": 48, 
    "model": "xtf.geopoint", 
    "fields": {
      "lon": -122.715203762054, 
      "object_id": 50, 
      "place": "4th St & B St, Santa Rosa, CA 95401, USA", 
      "content_type": [
        "xtf", 
        "arksetmember"
      ], 
      "lat": 38.439875534738, 
      "exact": true
    }
  }, 
  {
    "pk": 49, 
    "model": "xtf.geopoint", 
    "fields": {
      "lon": -122.415783, 
      "object_id": 51, 
      "place": "100 Larkin St, San Francisco, CA 94102, USA", 
      "content_type": [
        "xtf", 
        "arksetmember"
      ], 
      "lat": 37.778863999999999, 
      "exact": true
    }
  }, 
  {
    "pk": 50, 
    "model": "xtf.geopoint", 
    "fields": {
      "lon": -122.41760499999999, 
      "object_id": 52, 
      "place": "650 S Van Ness Ave, San Francisco, CA 94110, USA", 
      "content_type": [
        "xtf", 
        "arksetmember"
      ], 
      "lat": 37.762706000000001, 
      "exact": false
    }
  }, 
  {
    "pk": 51, 
    "model": "xtf.geopoint", 
    "fields": {
      "lon": -122.41620182990999, 
      "object_id": 53, 
      "place": "100 Larkin St, San Francisco, CA 94102, USA", 
      "content_type": [
        "xtf", 
        "arksetmember"
      ], 
      "lat": 37.7787159436674, 
      "exact": true
    }
  }, 
  {
    "pk": 52, 
    "model": "xtf.geopoint", 
    "fields": {
      "lon": -122.415505, 
      "object_id": 54, 
      "place": "Golden Gate Ave & Hyde St, San Francisco, CA 94102, USA", 
      "content_type": [
        "xtf", 
        "arksetmember"
      ], 
      "lat": 37.781653900000002, 
      "exact": true
    }
  }, 
  {
    "pk": 53, 
    "model": "xtf.geopoint", 
    "fields": {
      "lon": -122.41315484046901, 
      "object_id": 55, 
      "place": "100 Larkin St, San Francisco, CA 94102, USA", 
      "content_type": [
        "xtf", 
        "arksetmember"
      ], 
      "lat": 37.777460909922098, 
      "exact": false
    }
  }, 
  {
    "pk": 54, 
    "model": "xtf.geopoint", 
    "fields": {
      "lon": -122.414978742599, 
      "object_id": 56, 
      "place": "100 Larkin St, San Francisco, CA 94102, USA", 
      "content_type": [
        "xtf", 
        "arksetmember"
      ], 
      "lat": 37.778868581453402, 
      "exact": true
    }
  }, 
  {
    "pk": 55, 
    "model": "xtf.geopoint", 
    "fields": {
      "lon": -122.4197927, 
      "object_id": 57, 
      "place": "308 Van Ness Ave, San Francisco, CA 94102, USA", 
      "content_type": [
        "xtf", 
        "arksetmember"
      ], 
      "lat": 37.778426099999997, 
      "exact": true
    }
  }, 
  {
    "pk": 56, 
    "model": "xtf.geopoint", 
    "fields": {
      "lon": -122.4263751, 
      "object_id": 58, 
      "place": "Market St & Buchanan St, San Francisco, CA 94102, USA", 
      "content_type": [
        "xtf", 
        "arksetmember"
      ], 
      "lat": 37.769624899999997, 
      "exact": true
    }
  }, 
  {
    "pk": 57, 
    "model": "xtf.geopoint", 
    "fields": {
      "lon": -122.4116805, 
      "object_id": 59, 
      "place": "Market St & McAllister St, San Francisco, CA 94102, USA", 
      "content_type": [
        "xtf", 
        "arksetmember"
      ], 
      "lat": 37.781165299999998, 
      "exact": true
    }
  }, 
  {
    "pk": 58, 
    "model": "xtf.geopoint", 
    "fields": {
      "lon": -122.417376637459, 
      "object_id": 60, 
      "place": "100 Larkin St, San Francisco, CA 94102, USA", 
      "content_type": [
        "xtf", 
        "arksetmember"
      ], 
      "lat": 37.778580265370799, 
      "exact": false
    }
  }, 
  {
    "pk": 59, 
    "model": "xtf.geopoint", 
    "fields": {
      "lon": -122.413637638092, 
      "object_id": 61, 
      "place": "100 Larkin St, San Francisco, CA 94102, USA", 
      "content_type": [
        "xtf", 
        "arksetmember"
      ], 
      "lat": 37.779614806092397, 
      "exact": false
    }
  }, 
  {
    "pk": 60, 
    "model": "xtf.geopoint", 
    "fields": {
      "lon": -122.4125044, 
      "object_id": 62, 
      "place": "Market St & 7th St, San Francisco, CA 94103, USA", 
      "content_type": [
        "xtf", 
        "arksetmember"
      ], 
      "lat": 37.780481999999999, 
      "exact": true
    }
  }, 
  {
    "pk": 61, 
    "model": "xtf.geopoint", 
    "fields": {
      "lon": -122.4261779, 
      "object_id": 63, 
      "place": "Dolores St & 18th St, San Francisco, CA 94110, USA", 
      "content_type": [
        "xtf", 
        "arksetmember"
      ], 
      "lat": 37.761416599999997, 
      "exact": true
    }
  }, 
  {
    "pk": 62, 
    "model": "xtf.geopoint", 
    "fields": {
      "lon": -122.406679987907, 
      "object_id": 64, 
      "place": "333 Post St, San Francisco, CA 94102, USA", 
      "content_type": [
        "xtf", 
        "arksetmember"
      ], 
      "lat": 37.788034750643597, 
      "exact": true
    }
  }, 
  {
    "pk": 63, 
    "model": "xtf.geopoint", 
    "fields": {
      "lon": -122.40730619999999, 
      "object_id": 65, 
      "place": "333 Post St, San Francisco, CA 94102, USA", 
      "content_type": [
        "xtf", 
        "arksetmember"
      ], 
      "lat": 37.788415800000003, 
      "exact": true
    }
  }, 
  {
    "pk": 64, 
    "model": "xtf.geopoint", 
    "fields": {
      "lon": -122.397571, 
      "object_id": 66, 
      "place": "Mission St & 1st St, San Francisco, CA 94105, USA", 
      "content_type": [
        "xtf", 
        "arksetmember"
      ], 
      "lat": 37.7897745, 
      "exact": true
    }
  }, 
  {
    "pk": 65, 
    "model": "xtf.geopoint", 
    "fields": {
      "lon": -122.3991499, 
      "object_id": 67, 
      "place": "Market St & 1st St, San Francisco, CA 94111, USA", 
      "content_type": [
        "xtf", 
        "arksetmember"
      ], 
      "lat": 37.791018299999998, 
      "exact": true
    }
  }, 
  {
    "pk": 66, 
    "model": "xtf.geopoint", 
    "fields": {
      "lon": -122.4062201, 
      "object_id": 68, 
      "place": "Ellis St & Stockton St, San Francisco, CA 94102, USA", 
      "content_type": [
        "xtf", 
        "arksetmember"
      ], 
      "lat": 37.785697599999999, 
      "exact": true
    }
  }, 
  {
    "pk": 67, 
    "model": "xtf.geopoint", 
    "fields": {
      "lon": -122.476787, 
      "object_id": 69, 
      "place": "Fort Point National Historic Site, Long Ave, San Francisco, CA 94129, USA", 
      "content_type": [
        "xtf", 
        "arksetmember"
      ], 
      "lat": 37.810462000000001, 
      "exact": true
    }
  }, 
  {
    "pk": 68, 
    "model": "xtf.geopoint", 
    "fields": {
      "lon": -119.712873, 
      "object_id": 70, 
      "place": "2201 Laguna St, Santa Barbara, CA 93105, USA", 
      "content_type": [
        "xtf", 
        "arksetmember"
      ], 
      "lat": 34.437956999999997, 
      "exact": true
    }
  }, 
  {
    "pk": 69, 
    "model": "xtf.geopoint", 
    "fields": {
      "lon": -119.1766745, 
      "object_id": 71, 
      "place": "1114 S Oxnard Blvd, Oxnard, CA 93030, USA", 
      "content_type": [
        "xtf", 
        "arksetmember"
      ], 
      "lat": 34.189256399999998, 
      "exact": true
    }
  }, 
  {
    "pk": 70, 
    "model": "xtf.geopoint", 
    "fields": {
      "lon": -119.17682021856299, 
      "object_id": 72, 
      "place": "1114 S Oxnard Blvd, Oxnard, CA 93030, USA", 
      "content_type": [
        "xtf", 
        "arksetmember"
      ], 
      "lat": 34.189334324099399, 
      "exact": true
    }
  }, 
  {
    "pk": 71, 
    "model": "xtf.geopoint", 
    "fields": {
      "lon": -119.0976253, 
      "object_id": 73, 
      "place": "Mugu Lagoon, Oxnard, CA, USA", 
      "content_type": [
        "xtf", 
        "arksetmember"
      ], 
      "lat": 34.102143499999997, 
      "exact": false
    }
  }, 
  {
    "pk": 72, 
    "model": "xtf.geopoint", 
    "fields": {
      "lon": -118.2415197, 
      "object_id": 74, 
      "place": "136 S San Pedro St, Los Angeles, CA 90012, USA", 
      "content_type": [
        "xtf", 
        "arksetmember"
      ], 
      "lat": 34.049652799999997, 
      "exact": true
    }
  }, 
  {
    "pk": 73, 
    "model": "xtf.geopoint", 
    "fields": {
      "lon": -118.23156, 
      "object_id": 75, 
      "place": "600 Imperial St, Los Angeles, CA 90021, USA", 
      "content_type": [
        "xtf", 
        "arksetmember"
      ], 
      "lat": 34.038189799999998, 
      "exact": true
    }
  }, 
  {
    "pk": 74, 
    "model": "xtf.geopoint", 
    "fields": {
      "lon": -118.2496273, 
      "object_id": 76, 
      "place": "916 W Temple St, Los Angeles, CA 90012, USA", 
      "content_type": [
        "xtf", 
        "arksetmember"
      ], 
      "lat": 34.060966100000002, 
      "exact": true
    }
  }, 
  {
    "pk": 75, 
    "model": "xtf.geopoint", 
    "fields": {
      "lon": -118.239225, 
      "object_id": 77, 
      "place": "425 N Los Angeles St, Los Angeles, CA 90012, USA", 
      "content_type": [
        "xtf", 
        "arksetmember"
      ], 
      "lat": 34.055610999999999, 
      "exact": false
    }
  }, 
  {
    "pk": 76, 
    "model": "xtf.geopoint", 
    "fields": {
      "lon": -118.20706079999999, 
      "object_id": 78, 
      "place": "E Alondra Blvd & S Long Beach Blvd, Compton, CA 90221, USA", 
      "content_type": [
        "xtf", 
        "arksetmember"
      ], 
      "lat": 33.888647599999999, 
      "exact": true
    }
  }, 
  {
    "pk": 77, 
    "model": "xtf.geopoint", 
    "fields": {
      "lon": -118.486401, 
      "object_id": 79, 
      "place": "Ocean Front Walk, Santa Monica, CA 90405, USA", 
      "content_type": [
        "xtf", 
        "arksetmember"
      ], 
      "lat": 34.000219999999999, 
      "exact": true
    }
  }, 
  {
    "pk": 78, 
    "model": "xtf.geopoint", 
    "fields": {
      "lon": -118.2440692, 
      "object_id": 80, 
      "place": "135 E 2nd St, Los Angeles, CA 90012, USA", 
      "content_type": [
        "xtf", 
        "arksetmember"
      ], 
      "lat": 34.050756, 
      "exact": true
    }
  }, 
  {
    "pk": 79, 
    "model": "xtf.geopoint", 
    "fields": {
      "lon": -117.888858318329, 
      "object_id": 81, 
      "place": "101 The City Dr S, Orange, CA 92868, USA", 
      "content_type": [
        "xtf", 
        "arksetmember"
      ], 
      "lat": 33.787458194370203, 
      "exact": true
    }
  }, 
  {
    "pk": 80, 
    "model": "xtf.geopoint", 
    "fields": {
      "lon": -117.91145040000001, 
      "object_id": 82, 
      "place": "E Lincoln Ave & Philadelphia St, Anaheim, CA 92805, USA", 
      "content_type": [
        "xtf", 
        "arksetmember"
      ], 
      "lat": 33.837263900000004, 
      "exact": true
    }
  }, 
  {
    "pk": 81, 
    "model": "xtf.geopoint", 
    "fields": {
      "lon": -117.9146872, 
      "object_id": 83, 
      "place": "N Anaheim Blvd & W Cypress St, Anaheim, CA 92805, USA", 
      "content_type": [
        "xtf", 
        "arksetmember"
      ], 
      "lat": 33.837658300000001, 
      "exact": true
    }
  }, 
  {
    "pk": 82, 
    "model": "xtf.geopoint", 
    "fields": {
      "lon": -117.9681882, 
      "object_id": 84, 
      "place": "S Beach Blvd & W Imperial Hwy, La Habra, CA 90631, USA", 
      "content_type": [
        "xtf", 
        "arksetmember"
      ], 
      "lat": 33.917407400000002, 
      "exact": true
    }
  }, 
  {
    "pk": 83, 
    "model": "xtf.geopoint", 
    "fields": {
      "lon": -117.2941787, 
      "object_id": 85, 
      "place": "N E St & W 4th St, San Bernardino, CA 92401, USA", 
      "content_type": [
        "xtf", 
        "arksetmember"
      ], 
      "lat": 34.106466099999999, 
      "exact": true
    }
  }, 
  {
    "pk": 84, 
    "model": "xtf.geopoint", 
    "fields": {
      "lon": -117.294132113457, 
      "object_id": 86, 
      "place": "N E St & W 4th St, San Bernardino, CA 92401, USA", 
      "content_type": [
        "xtf", 
        "arksetmember"
      ], 
      "lat": 34.1064635528829, 
      "exact": true
    }
  }, 
  {
    "pk": 85, 
    "model": "xtf.geopoint", 
    "fields": {
      "lon": -121.558173894882, 
      "object_id": 87, 
      "place": "Oroville, CA, USA", 
      "content_type": [
        "xtf", 
        "arksetmember"
      ], 
      "lat": 39.514139317600701, 
      "exact": true
    }
  }, 
  {
    "pk": 86, 
    "model": "xtf.geopoint", 
    "fields": {
      "lon": -121.555008888245, 
      "object_id": 88, 
      "place": "Oroville, CA, USA", 
      "content_type": [
        "xtf", 
        "arksetmember"
      ], 
      "lat": 39.514238640921199, 
      "exact": true
    }
  }, 
  {
    "pk": 87, 
    "model": "xtf.geopoint", 
    "fields": {
      "lon": -121.55532002449, 
      "object_id": 89, 
      "place": "Oroville, CA, USA", 
      "content_type": [
        "xtf", 
        "arksetmember"
      ], 
      "lat": 39.513617867837901, 
      "exact": true
    }
  }, 
  {
    "pk": 88, 
    "model": "xtf.geopoint", 
    "fields": {
      "lon": -121.5855504, 
      "object_id": 91, 
      "place": "B St & 2nd St, Marysville, CA 95901, USA", 
      "content_type": [
        "xtf", 
        "arksetmember"
      ], 
      "lat": 39.137268200000001, 
      "exact": false
    }
  }, 
  {
    "pk": 89, 
    "model": "xtf.geopoint", 
    "fields": {
      "lon": -119.7900807, 
      "object_id": 92, 
      "place": "1260 M St, Fresno, CA 93721, USA", 
      "content_type": [
        "xtf", 
        "arksetmember"
      ], 
      "lat": 36.739014699999998, 
      "exact": true
    }
  }, 
  {
    "pk": 90, 
    "model": "xtf.geopoint", 
    "fields": {
      "lon": -119.79283789999999, 
      "object_id": 93, 
      "place": "G St & Kern St, Fresno, CA 93706, USA", 
      "content_type": [
        "xtf", 
        "arksetmember"
      ], 
      "lat": 36.730219400000003, 
      "exact": true
    }
  }, 
  {
    "pk": 91, 
    "model": "xtf.geopoint", 
    "fields": {
      "lon": -120.3613622, 
      "object_id": 94, 
      "place": "N 5th St & W Durian Ave, Coalinga, CA 93210, USA", 
      "content_type": [
        "xtf", 
        "arksetmember"
      ], 
      "lat": 36.140413799999997, 
      "exact": true
    }
  }, 
  {
    "pk": 92, 
    "model": "xtf.geopoint", 
    "fields": {
      "lon": -119.64724820000001, 
      "object_id": 95, 
      "place": "W 7th St & N Irwin St, Hanford, CA 93230, USA", 
      "content_type": [
        "xtf", 
        "arksetmember"
      ], 
      "lat": 36.326374899999998, 
      "exact": true
    }
  }, 
  {
    "pk": 93, 
    "model": "xtf.geopoint", 
    "fields": {
      "lon": -119.34742900000001, 
      "object_id": 96, 
      "place": "100 N J St, Tulare, CA 93274, USA", 
      "content_type": [
        "xtf", 
        "arksetmember"
      ], 
      "lat": 36.207897899999999, 
      "exact": false
    }
  }, 
  {
    "pk": 94, 
    "model": "xtf.geopoint", 
    "fields": {
      "lon": -121.5894656, 
      "object_id": 97, 
      "place": "D St, Marysville, CA 95901, USA", 
      "content_type": [
        "xtf", 
        "arksetmember"
      ], 
      "lat": 39.143664399999999, 
      "exact": false
    }
  }, 
  {
    "pk": 95, 
    "model": "xtf.geopoint", 
    "fields": {
      "lon": -121.60426409999999, 
      "object_id": 98, 
      "place": "Twin Cities Memorial Bridge, Marysville, CA, USA", 
      "content_type": [
        "xtf", 
        "arksetmember"
      ], 
      "lat": 39.139145200000002, 
      "exact": false
    }
  }, 
  {
    "pk": 96, 
    "model": "xtf.geopoint", 
    "fields": {
      "lon": -124.0865046, 
      "object_id": 99, 
      "place": "Arcata Plaza, Arcata, CA 95521, USA", 
      "content_type": [
        "xtf", 
        "arksetmember"
      ], 
      "lat": 40.8685586, 
      "exact": true
    }
  }, 
  {
    "pk": 97, 
    "model": "xtf.geopoint", 
    "fields": {
      "lon": -122.82282499999999, 
      "object_id": 100, 
      "place": "261 S Main St, Sebastopol, CA 95472, USA", 
      "content_type": [
        "xtf", 
        "arksetmember"
      ], 
      "lat": 38.400606000000003, 
      "exact": true
    }
  }, 
  {
    "pk": 98, 
    "model": "xtf.geopoint", 
    "fields": {
      "lon": -124.104652404785, 
      "object_id": 101, 
      "place": "Arcata Marsh and Wildlife Sanctuary, Arcata, CA 95521, USA", 
      "content_type": [
        "xtf", 
        "arksetmember"
      ], 
      "lat": 40.843554188030801, 
      "exact": true
    }
  }, 
  {
    "pk": 99, 
    "model": "xtf.geopoint", 
    "fields": {
      "lon": -122.17218440000001, 
      "object_id": 104, 
      "place": "Foothill Blvd & 73rd Ave, Oakland, CA 94605, USA", 
      "content_type": [
        "xtf", 
        "arksetmember"
      ], 
      "lat": 37.769119500000002, 
      "exact": true
    }
  }, 
  {
    "pk": 100, 
    "model": "xtf.geopoint", 
    "fields": {
      "lon": -122.39398241043099, 
      "object_id": 105, 
      "place": "101 The Embarcadero, San Francisco, CA 94105, USA", 
      "content_type": [
        "xtf", 
        "arksetmember"
      ], 
      "lat": 37.795364324092397, 
      "exact": true
    }
  }, 
  {
    "pk": 101, 
    "model": "xtf.geopoint", 
    "fields": {
      "lon": -122.393692731857, 
      "object_id": 106, 
      "place": "101 The Embarcadero, San Francisco, CA 94105, USA", 
      "content_type": [
        "xtf", 
        "arksetmember"
      ], 
      "lat": 37.795050638329499, 
      "exact": true
    }
  }, 
  {
    "pk": 102, 
    "model": "xtf.geopoint", 
    "fields": {
      "lon": -122.292345, 
      "object_id": 107, 
      "place": "2032 San Pablo Ave, Berkeley, CA 94710, USA", 
      "content_type": [
        "xtf", 
        "arksetmember"
      ], 
      "lat": 37.868487000000002, 
      "exact": true
    }
  }, 
  {
    "pk": 103, 
    "model": "xtf.geopoint", 
    "fields": {
      "lon": -122.2693585, 
      "object_id": 108, 
      "place": "Shattuck Ave & Vine St, Berkeley, CA 94709, USA", 
      "content_type": [
        "xtf", 
        "arksetmember"
      ], 
      "lat": 37.880225000000003, 
      "exact": true
    }
  }, 
  {
    "pk": 104, 
    "model": "xtf.geopoint", 
    "fields": {
      "lon": -122.29208490000001, 
      "object_id": 109, 
      "place": "San Pablo Ave & University Ave, Berkeley, CA 94702, USA", 
      "content_type": [
        "xtf", 
        "arksetmember"
      ], 
      "lat": 37.869157299999998, 
      "exact": true
    }
  }, 
  {
    "pk": 105, 
    "model": "xtf.geopoint", 
    "fields": {
      "lon": -121.6552887, 
      "object_id": 110, 
      "place": "200 Main St, Salinas, CA 93901, USA", 
      "content_type": [
        "xtf", 
        "arksetmember"
      ], 
      "lat": 36.6755663, 
      "exact": false
    }
  }, 
  {
    "pk": 106, 
    "model": "xtf.geopoint", 
    "fields": {
      "lon": -121.94577940000001, 
      "object_id": 111, 
      "place": "17 Mile Dr, CA, USA", 
      "content_type": [
        "xtf", 
        "arksetmember"
      ], 
      "lat": 36.603541900000003, 
      "exact": false
    }
  }, 
  {
    "pk": 107, 
    "model": "xtf.geopoint", 
    "fields": {
      "lon": -119.17987789999999, 
      "object_id": 112, 
      "place": "S B St & W 6th St, Oxnard, CA 93030, USA", 
      "content_type": [
        "xtf", 
        "arksetmember"
      ], 
      "lat": 34.196386500000003, 
      "exact": false
    }
  }, 
  {
    "pk": 108, 
    "model": "xtf.geopoint", 
    "fields": {
      "lon": -119.18031000000001, 
      "object_id": 113, 
      "place": "Plaza Park, Oxnard, CA 93030, USA", 
      "content_type": [
        "xtf", 
        "arksetmember"
      ], 
      "lat": 34.197634499999999, 
      "exact": true
    }
  }, 
  {
    "pk": 109, 
    "model": "xtf.geopoint", 
    "fields": {
      "lon": -117.6514236, 
      "object_id": 114, 
      "place": "N Euclid Ave & W 16th St, Upland, CA 91784, USA", 
      "content_type": [
        "xtf", 
        "arksetmember"
      ], 
      "lat": 34.1215537, 
      "exact": false
    }
  }, 
  {
    "pk": 110, 
    "model": "xtf.geopoint", 
    "fields": {
      "lon": -118.2572222, 
      "object_id": 115, 
      "place": "Maple Ave & E Pico Blvd, Los Angeles, CA 90015, USA", 
      "content_type": [
        "xtf", 
        "arksetmember"
      ], 
      "lat": 34.034565000000001, 
      "exact": false
    }
  }, 
  {
    "pk": 111, 
    "model": "xtf.geopoint", 
    "fields": {
      "lon": -118.24665760000001, 
      "object_id": 116, 
      "place": "S Broadway & W 2nd St, Los Angeles, CA 90012, USA", 
      "content_type": [
        "xtf", 
        "arksetmember"
      ], 
      "lat": 34.052387600000003, 
      "exact": true
    }
  }, 
  {
    "pk": 112, 
    "model": "xtf.geopoint", 
    "fields": {
      "lon": -118.1478201, 
      "object_id": 117, 
      "place": "Belmont Pier, Long Beach, CA, USA", 
      "content_type": [
        "xtf", 
        "arksetmember"
      ], 
      "lat": 33.7588723, 
      "exact": true
    }
  }, 
  {
    "pk": 113, 
    "model": "xtf.geopoint", 
    "fields": {
      "lon": -118.2154652, 
      "object_id": 118, 
      "place": "Santa Fe Ave & W 9th St, Long Beach, CA 90813, USA", 
      "content_type": [
        "xtf", 
        "arksetmember"
      ], 
      "lat": 33.780654699999999, 
      "exact": true
    }
  }, 
  {
    "pk": 114, 
    "model": "xtf.geopoint", 
    "fields": {
      "lon": -118.2490754, 
      "object_id": 119, 
      "place": "W 3rd St & S Hill St, Los Angeles, CA 90013, USA", 
      "content_type": [
        "xtf", 
        "arksetmember"
      ], 
      "lat": 34.051648499999999, 
      "exact": true
    }
  }, 
  {
    "pk": 115, 
    "model": "xtf.geopoint", 
    "fields": {
      "lon": -117.838791, 
      "object_id": 120, 
      "place": "1400 E Collins Ave, Orange, CA 92867, USA", 
      "content_type": [
        "xtf", 
        "arksetmember"
      ], 
      "lat": 33.802048900000003, 
      "exact": true
    }
  }, 
  {
    "pk": 116, 
    "model": "xtf.geopoint", 
    "fields": {
      "lon": -117.8541987, 
      "object_id": 121, 
      "place": "136 S Olive St, Orange, CA 92866, USA", 
      "content_type": [
        "xtf", 
        "arksetmember"
      ], 
      "lat": 33.787140200000003, 
      "exact": true
    }
  }, 
  {
    "pk": 117, 
    "model": "xtf.geopoint", 
    "fields": {
      "lon": -117.91434719999999, 
      "object_id": 122, 
      "place": "228 N Anaheim Blvd, Anaheim, CA 92805, USA", 
      "content_type": [
        "xtf", 
        "arksetmember"
      ], 
      "lat": 33.837263900000004, 
      "exact": true
    }
  }, 
  {
    "pk": 118, 
    "model": "xtf.geopoint", 
    "fields": {
      "lon": -117.91496069999999, 
      "object_id": 123, 
      "place": "135 W Lincoln Ave, Anaheim, CA 92805, USA", 
      "content_type": [
        "xtf", 
        "arksetmember"
      ], 
      "lat": 33.836454500000002, 
      "exact": true
    }
  }, 
  {
    "pk": 119, 
    "model": "xtf.geopoint", 
    "fields": {
      "lon": -117.9094762, 
      "object_id": 124, 
      "place": "708 E Lincoln Ave, Anaheim, CA 92805, USA", 
      "content_type": [
        "xtf", 
        "arksetmember"
      ], 
      "lat": 33.837387100000001, 
      "exact": true
    }
  }, 
  {
    "pk": 120, 
    "model": "xtf.geopoint", 
    "fields": {
      "lon": -117.9135921, 
      "object_id": 125, 
      "place": "132 S Anaheim Blvd, Anaheim, CA 92805, USA", 
      "content_type": [
        "xtf", 
        "arksetmember"
      ], 
      "lat": 33.835178499999998, 
      "exact": true
    }
  }, 
  {
    "pk": 121, 
    "model": "xtf.geopoint", 
    "fields": {
      "lon": -117.2611094, 
      "object_id": 126, 
      "place": "Anderson St & Mound St, Loma Linda, CA 92354, USA", 
      "content_type": [
        "xtf", 
        "arksetmember"
      ], 
      "lat": 34.051648499999999, 
      "exact": false
    }
  }, 
  {
    "pk": 122, 
    "model": "xtf.geopoint", 
    "fields": {
      "lon": -117.28283089999999, 
      "object_id": 127, 
      "place": "E 40th St & Sepulveda Ave, San Bernardino, CA 92404, USA", 
      "content_type": [
        "xtf", 
        "arksetmember"
      ], 
      "lat": 34.164864399999999, 
      "exact": true
    }
  }, 
  {
    "pk": 123, 
    "model": "xtf.geopoint", 
    "fields": {
      "lon": -117.3931011, 
      "object_id": 128, 
      "place": "Mt Rubidoux, Riverside, CA 92501, USA", 
      "content_type": [
        "xtf", 
        "arksetmember"
      ], 
      "lat": 33.9839038, 
      "exact": true
    }
  }, 
  {
    "pk": 124, 
    "model": "xtf.geopoint", 
    "fields": {
      "lon": -117.41837940000001, 
      "object_id": 130, 
      "place": "Magnolia Avenue, Rialto, CA 92504, USA", 
      "content_type": [
        "xtf", 
        "arksetmember"
      ], 
      "lat": 33.957237300000003, 
      "exact": false
    }
  }, 
  {
    "pk": 125, 
    "model": "xtf.geopoint", 
    "fields": {
      "lon": -117.169940471649, 
      "object_id": 131, 
      "place": "1050 Kettner Blvd, San Diego, CA 92101, USA", 
      "content_type": [
        "xtf", 
        "arksetmember"
      ], 
      "lat": 32.715779091207501, 
      "exact": true
    }
  }, 
  {
    "pk": 126, 
    "model": "xtf.geopoint", 
    "fields": {
      "lon": -117.215309, 
      "object_id": 132, 
      "place": "North Island Naval Complex, Coronado, CA 92118, USA", 
      "content_type": [
        "xtf", 
        "arksetmember"
      ], 
      "lat": 32.699215000000002, 
      "exact": false
    }
  }, 
  {
    "pk": 127, 
    "model": "xtf.geopoint", 
    "fields": {
      "lon": -117.178448, 
      "object_id": 133, 
      "place": "1500 Orange Ave, Coronado, CA 92118, USA", 
      "content_type": [
        "xtf", 
        "arksetmember"
      ], 
      "lat": 32.680923999999997, 
      "exact": true
    }
  }, 
  {
    "pk": 128, 
    "model": "xtf.geopoint", 
    "fields": {
      "lon": -117.1464146, 
      "object_id": 134, 
      "place": "University Ave & Park Blvd, San Diego, CA 92103, USA", 
      "content_type": [
        "xtf", 
        "arksetmember"
      ], 
      "lat": 32.748450400000003, 
      "exact": true
    }
  }, 
  {
    "pk": 129, 
    "model": "xtf.geopoint", 
    "fields": {
      "lon": -117.169232368469, 
      "object_id": 135, 
      "place": "1050 Kettner Blvd, San Diego, CA 92101, USA", 
      "content_type": [
        "xtf", 
        "arksetmember"
      ], 
      "lat": 32.716162730854499, 
      "exact": true
    }
  }, 
  {
    "pk": 130, 
    "model": "xtf.geopoint", 
    "fields": {
      "lon": -122.3188961, 
      "object_id": 136, 
      "place": "Pit River Bridge, Lakehead, CA 96051, USA", 
      "content_type": [
        "xtf", 
        "arksetmember"
      ], 
      "lat": 40.762372300000003, 
      "exact": true
    }
  }, 
  {
    "pk": 131, 
    "model": "xtf.geopoint", 
    "fields": {
      "lon": -122.2719529, 
      "object_id": 137, 
      "place": "Dunsmuir, CA, USA", 
      "content_type": [
        "xtf", 
        "arksetmember"
      ], 
      "lat": 41.208208900000002, 
      "exact": false
    }
  }, 
  {
    "pk": 132, 
    "model": "xtf.geopoint", 
    "fields": {
      "lon": -120.5424555, 
      "object_id": 138, 
      "place": "Alturas, CA, USA", 
      "content_type": [
        "xtf", 
        "arksetmember"
      ], 
      "lat": 41.487114599999998, 
      "exact": false
    }
  }, 
  {
    "pk": 133, 
    "model": "xtf.geopoint", 
    "fields": {
      "lon": -120.5423971, 
      "object_id": 139, 
      "place": "304 S Main St, Alturas, CA 96101, USA", 
      "content_type": [
        "xtf", 
        "arksetmember"
      ], 
      "lat": 41.482565100000002, 
      "exact": true
    }
  }, 
  {
    "pk": 134, 
    "model": "xtf.geopoint", 
    "fields": {
      "lon": -121.0610606, 
      "object_id": 140, 
      "place": "Grass Valley, CA, USA", 
      "content_type": [
        "xtf", 
        "arksetmember"
      ], 
      "lat": 39.219060800000001, 
      "exact": false
    }
  }, 
  {
    "pk": 135, 
    "model": "xtf.geopoint", 
    "fields": {
      "lon": -120.8268905, 
      "object_id": 141, 
      "place": "Downieville, West Sierra, CA 95936, USA", 
      "content_type": [
        "xtf", 
        "arksetmember"
      ], 
      "lat": 39.559340499999998, 
      "exact": false
    }
  }, 
  {
    "pk": 136, 
    "model": "xtf.geopoint", 
    "fields": {
      "lon": -121.506493091583, 
      "object_id": 142, 
      "place": "I St Bridge, Sacramento, CA 95814, USA", 
      "content_type": [
        "xtf", 
        "arksetmember"
      ], 
      "lat": 38.586300140884397, 
      "exact": false
    }
  }, 
  {
    "pk": 137, 
    "model": "xtf.geopoint", 
    "fields": {
      "lon": -121.499621, 
      "object_id": 143, 
      "place": "H St & 5th St, Sacramento, CA 95814, USA", 
      "content_type": [
        "xtf", 
        "arksetmember"
      ], 
      "lat": 38.583168999999998, 
      "exact": false
    }
  }, 
  {
    "pk": 138, 
    "model": "xtf.geopoint", 
    "fields": {
      "lon": -121.58853310000001, 
      "object_id": 144, 
      "place": "2nd St & D St, Marysville, CA 95901, USA", 
      "content_type": [
        "xtf", 
        "arksetmember"
      ], 
      "lat": 39.1370115, 
      "exact": true
    }
  }, 
  {
    "pk": 139, 
    "model": "xtf.geopoint", 
    "fields": {
      "lon": -121.42301329999999, 
      "object_id": 145, 
      "place": "Wheatland, CA, USA", 
      "content_type": [
        "xtf", 
        "arksetmember"
      ], 
      "lat": 39.009894600000003, 
      "exact": true
    }
  }, 
  {
    "pk": 140, 
    "model": "xtf.geopoint", 
    "fields": {
      "lon": -121.58850431442301, 
      "object_id": 146, 
      "place": "2nd St & D St, Marysville, CA 95901, USA", 
      "content_type": [
        "xtf", 
        "arksetmember"
      ], 
      "lat": 39.136851093896198, 
      "exact": true
    }
  }, 
  {
    "pk": 141, 
    "model": "xtf.geopoint", 
    "fields": {
      "lon": -121.59043490000001, 
      "object_id": 147, 
      "place": "E St & 4th St, Marysville, CA 95901, USA", 
      "content_type": [
        "xtf", 
        "arksetmember"
      ], 
      "lat": 39.139098799999999, 
      "exact": true
    }
  }, 
  {
    "pk": 142, 
    "model": "xtf.geopoint", 
    "fields": {
      "lon": -120.3602078, 
      "object_id": 148, 
      "place": "100 Elm Ave, Coalinga, CA 93210, USA", 
      "content_type": [
        "xtf", 
        "arksetmember"
      ], 
      "lat": 36.139735999999999, 
      "exact": false
    }
  }, 
  {
    "pk": 143, 
    "model": "xtf.geopoint", 
    "fields": {
      "lon": -119.291247, 
      "object_id": 149, 
      "place": "N Church St & E Oak Ave, Visalia, CA 93291, USA", 
      "content_type": [
        "xtf", 
        "arksetmember"
      ], 
      "lat": 36.331984200000001, 
      "exact": true
    }
  }, 
  {
    "pk": 144, 
    "model": "xtf.geopoint", 
    "fields": {
      "lon": -119.0386786, 
      "object_id": 150, 
      "place": "Oak St & 19th St, Bakersfield, CA 93301, USA", 
      "content_type": [
        "xtf", 
        "arksetmember"
      ], 
      "lat": 35.3762677, 
      "exact": true
    }
  }, 
  {
    "pk": 145, 
    "model": "xtf.geopoint", 
    "fields": {
      "lon": -119.12136169999999, 
      "object_id": 151, 
      "place": "Mono Lake Ave, Coleville, CA 93541, USA", 
      "content_type": [
        "xtf", 
        "arksetmember"
      ], 
      "lat": 37.957562699999997, 
      "exact": false
    }
  }, 
  {
    "pk": 146, 
    "model": "xtf.geopoint", 
    "fields": {
      "lon": -119.2313889, 
      "object_id": 153, 
      "place": "Bridgeport, CA, USA", 
      "content_type": [
        "xtf", 
        "arksetmember"
      ], 
      "lat": 38.255833299999999, 
      "exact": false
    }
  }, 
  {
    "pk": 147, 
    "model": "xtf.geopoint", 
    "fields": {
      "lon": -119.5758333, 
      "object_id": 155, 
      "place": "Yosemite National Park, CA 95389, USA", 
      "content_type": [
        "xtf", 
        "arksetmember"
      ], 
      "lat": 37.743333300000003, 
      "exact": false
    }
  }, 
  {
    "pk": 148, 
    "model": "xtf.geopoint", 
    "fields": {
      "lon": -120.1352778, 
      "object_id": 156, 
      "place": "Bagby, CA 95311, USA", 
      "content_type": [
        "xtf", 
        "arksetmember"
      ], 
      "lat": 37.611944399999999, 
      "exact": false
    }
  }, 
  {
    "pk": 149, 
    "model": "xtf.geopoint", 
    "fields": {
      "lon": -117.27615419999999, 
      "object_id": 157, 
      "place": "Inspiration Point, San Bernardino, CA 92404, USA", 
      "content_type": [
        "xtf", 
        "arksetmember"
      ], 
      "lat": 34.189452899999999, 
      "exact": false
    }
  }, 
  {
    "pk": 150, 
    "model": "xtf.geopoint", 
    "fields": {
      "lon": -117.213116, 
      "object_id": 158, 
      "place": "Hwy 66, Barstow, CA 92311, USA", 
      "content_type": [
        "xtf", 
        "arksetmember"
      ], 
      "lat": 34.801186999999999, 
      "exact": false
    }
  }, 
  {
    "pk": 151, 
    "model": "xtf.geopoint", 
    "fields": {
      "lon": -117.0172826, 
      "object_id": 159, 
      "place": "Barstow, CA, USA", 
      "content_type": [
        "xtf", 
        "arksetmember"
      ], 
      "lat": 34.895795700000001, 
      "exact": false
    }
  }, 
  {
    "pk": 152, 
    "model": "xtf.geopoint", 
    "fields": {
      "lon": -115.56305140000001, 
      "object_id": 160, 
      "place": "El Centro, CA, USA", 
      "content_type": [
        "xtf", 
        "arksetmember"
      ], 
      "lat": 32.792000000000002, 
      "exact": true
    }
  }, 
  {
    "pk": 153, 
    "model": "xtf.geopoint", 
    "fields": {
      "lon": -114.5891744, 
      "object_id": 161, 
      "place": "Blythe, CA, USA", 
      "content_type": [
        "xtf", 
        "arksetmember"
      ], 
      "lat": 33.617232899999998, 
      "exact": false
    }
  }, 
  {
    "pk": 154, 
    "model": "xtf.geopoint", 
    "fields": {
      "lon": -122.87072809999999, 
      "object_id": 162, 
      "place": "Healdsburg Ave & Plaza St, Healdsburg, CA 95448, USA", 
      "content_type": [
        "xtf", 
        "arksetmember"
      ], 
      "lat": 38.611035000000001, 
      "exact": true
    }
  }, 
  {
    "pk": 155, 
    "model": "xtf.geopoint", 
    "fields": {
      "lon": -124.1431144, 
      "object_id": 163, 
      "place": "Edwards St & Trinity St, Trinidad, CA 95570, USA", 
      "content_type": [
        "xtf", 
        "arksetmember"
      ], 
      "lat": 41.058484200000002, 
      "exact": true
    }
  }, 
  {
    "pk": 156, 
    "model": "xtf.geopoint", 
    "fields": {
      "lon": -122.71401419999999, 
      "object_id": 164, 
      "place": "Mendocino Ave & 4th St, Santa Rosa, CA 95401, USA", 
      "content_type": [
        "xtf", 
        "arksetmember"
      ], 
      "lat": 38.440438299999997, 
      "exact": true
    }
  }, 
  {
    "pk": 157, 
    "model": "xtf.geopoint", 
    "fields": {
      "lon": -122.4013094, 
      "object_id": 165, 
      "place": "Sacramento St & Sansome St, San Francisco, CA 94111, USA", 
      "content_type": [
        "xtf", 
        "arksetmember"
      ], 
      "lat": 37.793985200000002, 
      "exact": true
    }
  }, 
  {
    "pk": 158, 
    "model": "xtf.geopoint", 
    "fields": {
      "lon": -122.2588981, 
      "object_id": 166, 
      "place": "Lakeshore Ave & 1st Ave, Oakland, CA 94606, USA", 
      "content_type": [
        "xtf", 
        "arksetmember"
      ], 
      "lat": 37.798347999999997, 
      "exact": true
    }
  }, 
  {
    "pk": 159, 
    "model": "xtf.geopoint", 
    "fields": {
      "lon": -122.3062346, 
      "object_id": 167, 
      "place": "7th St & Bay St, Oakland, CA 94607, USA", 
      "content_type": [
        "xtf", 
        "arksetmember"
      ], 
      "lat": 37.8081326, 
      "exact": true
    }
  }, 
  {
    "pk": 160, 
    "model": "xtf.geopoint", 
    "fields": {
      "lon": -122.40468660000001, 
      "object_id": 168, 
      "place": "Broadway & Rowland St, San Francisco, CA 94133, USA", 
      "content_type": [
        "xtf", 
        "arksetmember"
      ], 
      "lat": 37.798118299999999, 
      "exact": true
    }
  }, 
  {
    "pk": 161, 
    "model": "xtf.geopoint", 
    "fields": {
      "lon": -122.4051364, 
      "object_id": 169, 
      "place": "Portsmouth Square Plaza, San Francisco, CA 94108, USA", 
      "content_type": [
        "xtf", 
        "arksetmember"
      ], 
      "lat": 37.794805099999998, 
      "exact": true
    }
  }, 
  {
    "pk": 162, 
    "model": "xtf.geopoint", 
    "fields": {
      "lon": -122.4068206, 
      "object_id": 170, 
      "place": "Clay St & Waverly Pl, San Francisco, CA 94108, USA", 
      "content_type": [
        "xtf", 
        "arksetmember"
      ], 
      "lat": 37.7942033, 
      "exact": true
    }
  }, 
  {
    "pk": 163, 
    "model": "xtf.geopoint", 
    "fields": {
      "lon": -122.26839270000001, 
      "object_id": 171, 
      "place": "Shattuck Ave & University Ave, Berkeley, CA 94704, USA", 
      "content_type": [
        "xtf", 
        "arksetmember"
      ], 
      "lat": 37.872191899999997, 
      "exact": true
    }
  }, 
  {
    "pk": 164, 
    "model": "xtf.geopoint", 
    "fields": {
      "lon": -122.2680573, 
      "object_id": 172, 
      "place": "2200 Shattuck Ave, Berkeley, CA 94704, USA", 
      "content_type": [
        "xtf", 
        "arksetmember"
      ], 
      "lat": 37.869366999999997, 
      "exact": true
    }
  }, 
  {
    "pk": 165, 
    "model": "xtf.geopoint", 
    "fields": {
      "lon": -122.2672936, 
      "object_id": 173, 
      "place": "Shattuck Ave & Dwight Way, Berkeley, CA 94704, USA", 
      "content_type": [
        "xtf", 
        "arksetmember"
      ], 
      "lat": 37.863983300000001, 
      "exact": true
    }
  }, 
  {
    "pk": 166, 
    "model": "xtf.geopoint", 
    "fields": {
      "lon": -121.88950490000001, 
      "object_id": 174, 
      "place": "E Santa Clara St & N 2nd St, San Jose, CA 95113, USA", 
      "content_type": [
        "xtf", 
        "arksetmember"
      ], 
      "lat": 37.336670599999998, 
      "exact": true
    }
  }, 
  {
    "pk": 167, 
    "model": "xtf.geopoint", 
    "fields": {
      "lon": -120.6903818, 
      "object_id": 175, 
      "place": "Park St, Paso Robles, CA 93446, USA", 
      "content_type": [
        "xtf", 
        "arksetmember"
      ], 
      "lat": 35.629873699999997, 
      "exact": false
    }
  }, 
  {
    "pk": 168, 
    "model": "xtf.geopoint", 
    "fields": {
      "lon": -121.8977319, 
      "object_id": 176, 
      "place": "Cannery Row, Pacific Grove, CA 93940, USA", 
      "content_type": [
        "xtf", 
        "arksetmember"
      ], 
      "lat": 36.6132931, 
      "exact": false
    }
  }, 
  {
    "pk": 169, 
    "model": "xtf.geopoint", 
    "fields": {
      "lon": -121.8962064, 
      "object_id": 177, 
      "place": "Hartnell St & Polk St, Monterey, CA 93940, USA", 
      "content_type": [
        "xtf", 
        "arksetmember"
      ], 
      "lat": 36.596841599999998, 
      "exact": true
    }
  }, 
  {
    "pk": 170, 
    "model": "xtf.geopoint", 
    "fields": {
      "lon": -121.9214862, 
      "object_id": 178, 
      "place": "Lighthouse Ave, Pacific Grove, CA 93950, USA", 
      "content_type": [
        "xtf", 
        "arksetmember"
      ], 
      "lat": 36.622880899999998, 
      "exact": false
    }
  }, 
  {
    "pk": 171, 
    "model": "xtf.geopoint", 
    "fields": {
      "lon": -119.1798335, 
      "object_id": 179, 
      "place": "W 5th St & S B St, Oxnard, CA 93030, USA", 
      "content_type": [
        "xtf", 
        "arksetmember"
      ], 
      "lat": 34.197597899999998, 
      "exact": true
    }
  }, 
  {
    "pk": 172, 
    "model": "xtf.geopoint", 
    "fields": {
      "lon": -119.1724978, 
      "object_id": 180, 
      "place": "Five Points NE, Oxnard, CA, USA", 
      "content_type": [
        "xtf", 
        "arksetmember"
      ], 
      "lat": 34.192827600000001, 
      "exact": true
    }
  }, 
  {
    "pk": 173, 
    "model": "xtf.geopoint", 
    "fields": {
      "lon": -118.279195, 
      "object_id": 181, 
      "place": "621 W Adams Blvd, Los Angeles, CA 90007, USA", 
      "content_type": [
        "xtf", 
        "arksetmember"
      ], 
      "lat": 34.024405000000002, 
      "exact": true
    }
  }, 
  {
    "pk": 174, 
    "model": "xtf.geopoint", 
    "fields": {
      "lon": -118.2444362, 
      "object_id": 182, 
      "place": "W 1st St & N Spring St, Los Angeles, CA 90012, USA", 
      "content_type": [
        "xtf", 
        "arksetmember"
      ], 
      "lat": 34.052936699999997, 
      "exact": true
    }
  }, 
  {
    "pk": 175, 
    "model": "xtf.geopoint", 
    "fields": {
      "lon": -118.4944782, 
      "object_id": 183, 
      "place": "Broadway & 3rd St, Santa Monica, CA 90401, USA", 
      "content_type": [
        "xtf", 
        "arksetmember"
      ], 
      "lat": 34.014349699999997, 
      "exact": true
    }
  }, 
  {
    "pk": 176, 
    "model": "xtf.geopoint", 
    "fields": {
      "lon": -118.3304076, 
      "object_id": 184, 
      "place": "W Carson St, Torrance, CA, USA", 
      "content_type": [
        "xtf", 
        "arksetmember"
      ], 
      "lat": 33.831290099999997, 
      "exact": false
    }
  }, 
  {
    "pk": 177, 
    "model": "xtf.geopoint", 
    "fields": {
      "lon": -118.16784560000001, 
      "object_id": 185, 
      "place": "Signal Hill, CA, USA", 
      "content_type": [
        "xtf", 
        "arksetmember"
      ], 
      "lat": 33.804461400000001, 
      "exact": true
    }
  }, 
  {
    "pk": 178, 
    "model": "xtf.geopoint", 
    "fields": {
      "lon": -118.47224490000001, 
      "object_id": 186, 
      "place": "Pacific Ave & Windward Ave, Venice, CA 90291, USA", 
      "content_type": [
        "xtf", 
        "arksetmember"
      ], 
      "lat": 33.987685499999998, 
      "exact": true
    }
  }, 
  {
    "pk": 179, 
    "model": "xtf.geopoint", 
    "fields": {
      "lon": -117.85311799999999, 
      "object_id": 187, 
      "place": "S Glassell St & W Culver Ave, Orange, CA 92866, USA", 
      "content_type": [
        "xtf", 
        "arksetmember"
      ], 
      "lat": 33.7824271, 
      "exact": true
    }
  }, 
  {
    "pk": 180, 
    "model": "xtf.geopoint", 
    "fields": {
      "lon": -117.8522488, 
      "object_id": 188, 
      "place": "118 E Chapman Ave, Orange, CA 92866, USA", 
      "content_type": [
        "xtf", 
        "arksetmember"
      ], 
      "lat": 33.787852700000002, 
      "exact": true
    }
  }, 
  {
    "pk": 181, 
    "model": "xtf.geopoint", 
    "fields": {
      "lon": -117.85431699999999, 
      "object_id": 189, 
      "place": "114 N Olive St, Orange, CA 92866, USA", 
      "content_type": [
        "xtf", 
        "arksetmember"
      ], 
      "lat": 33.788252, 
      "exact": true
    }
  }, 
  {
    "pk": 182, 
    "model": "xtf.geopoint", 
    "fields": {
      "lon": -117.8520017, 
      "object_id": 190, 
      "place": "125 S Orange St, Orange, CA 92866, USA", 
      "content_type": [
        "xtf", 
        "arksetmember"
      ], 
      "lat": 33.787330599999997, 
      "exact": true
    }
  }, 
  {
    "pk": 183, 
    "model": "xtf.geopoint", 
    "fields": {
      "lon": -117.9142301, 
      "object_id": 191, 
      "place": "112 N Anaheim Blvd, Anaheim, CA 92805, USA", 
      "content_type": [
        "xtf", 
        "arksetmember"
      ], 
      "lat": 33.836979300000003, 
      "exact": true
    }
  }, 
  {
    "pk": 184, 
    "model": "xtf.geopoint", 
    "fields": {
      "lon": -117.9147889, 
      "object_id": 192, 
      "place": "128 W Lincoln Ave, Anaheim, CA 92805, USA", 
      "content_type": [
        "xtf", 
        "arksetmember"
      ], 
      "lat": 33.836341300000001, 
      "exact": true
    }
  }, 
  {
    "pk": 185, 
    "model": "xtf.geopoint", 
    "fields": {
      "lon": -117.9140929, 
      "object_id": 193, 
      "place": "W Lincoln Ave & S Anaheim Blvd, Anaheim, CA 92805, USA", 
      "content_type": [
        "xtf", 
        "arksetmember"
      ], 
      "lat": 33.836587799999997, 
      "exact": true
    }
  }, 
  {
    "pk": 186, 
    "model": "xtf.geopoint", 
    "fields": {
      "lon": -117.9146786, 
      "object_id": 194, 
      "place": "412 S Lemon St, Anaheim, CA 92805, USA", 
      "content_type": [
        "xtf", 
        "arksetmember"
      ], 
      "lat": 33.8316236, 
      "exact": true
    }
  }, 
  {
    "pk": 187, 
    "model": "xtf.geopoint", 
    "fields": {
      "lon": -117.9152591, 
      "object_id": 195, 
      "place": "151 W Lincoln Ave, Anaheim, CA 92805, USA", 
      "content_type": [
        "xtf", 
        "arksetmember"
      ], 
      "lat": 33.836358400000002, 
      "exact": true
    }
  }, 
  {
    "pk": 188, 
    "model": "xtf.geopoint", 
    "fields": {
      "lon": -117.91616449999999, 
      "object_id": 196, 
      "place": "W Lincoln Ave & N Lemon St, Anaheim, CA 92805, USA", 
      "content_type": [
        "xtf", 
        "arksetmember"
      ], 
      "lat": 33.836046000000003, 
      "exact": true
    }
  }, 
  {
    "pk": 189, 
    "model": "xtf.geopoint", 
    "fields": {
      "lon": -117.867482453585, 
      "object_id": 197, 
      "place": "E 4th St & N Main St, Santa Ana, CA 92701, USA", 
      "content_type": [
        "xtf", 
        "arksetmember"
      ], 
      "lat": 33.748003405941297, 
      "exact": true
    }
  }, 
  {
    "pk": 190, 
    "model": "xtf.geopoint", 
    "fields": {
      "lon": -117.867656, 
      "object_id": 198, 
      "place": "N Main St & W 3rd St, Santa Ana, CA 92701, USA", 
      "content_type": [
        "xtf", 
        "arksetmember"
      ], 
      "lat": 33.747115800000003, 
      "exact": true
    }
  }, 
  {
    "pk": 191, 
    "model": "xtf.geopoint", 
    "fields": {
      "lon": -117.86753330000001, 
      "object_id": 199, 
      "place": "E 4th St & N Main St, Santa Ana, CA 92701, USA", 
      "content_type": [
        "xtf", 
        "arksetmember"
      ], 
      "lat": 33.748003599999997, 
      "exact": true
    }
  }, 
  {
    "pk": 192, 
    "model": "xtf.geopoint", 
    "fields": {
      "lon": -117.86658439999999, 
      "object_id": 200, 
      "place": "E 4th St & N Bush St, Santa Ana, CA 92701, USA", 
      "content_type": [
        "xtf", 
        "arksetmember"
      ], 
      "lat": 33.7479966, 
      "exact": true
    }
  }, 
  {
    "pk": 193, 
    "model": "xtf.geopoint", 
    "fields": {
      "lon": -117.37282, 
      "object_id": 201, 
      "place": "3649 Mission Inn Ave, Riverside, CA 92501, USA", 
      "content_type": [
        "xtf", 
        "arksetmember"
      ], 
      "lat": 33.983198000000002, 
      "exact": true
    }
  }, 
  {
    "pk": 194, 
    "model": "xtf.geopoint", 
    "fields": {
      "lon": -117.29093279999999, 
      "object_id": 202, 
      "place": "350 W 3rd St, San Bernardino, CA 92401, USA", 
      "content_type": [
        "xtf", 
        "arksetmember"
      ], 
      "lat": 34.1046099, 
      "exact": true
    }
  }, 
  {
    "pk": 195, 
    "model": "xtf.geopoint", 
    "fields": {
      "lon": -117.6564437, 
      "object_id": 203, 
      "place": "San Antonio Heights, CA, USA", 
      "content_type": [
        "xtf", 
        "arksetmember"
      ], 
      "lat": 34.155563800000003, 
      "exact": true
    }
  }, 
  {
    "pk": 196, 
    "model": "xtf.geopoint", 
    "fields": {
      "lon": -117.369913, 
      "object_id": 204, 
      "place": "Main St, Riverside, CA 92501, USA", 
      "content_type": [
        "xtf", 
        "arksetmember"
      ], 
      "lat": 33.988699500000003, 
      "exact": false
    }
  }, 
  {
    "pk": 197, 
    "model": "xtf.geopoint", 
    "fields": {
      "lon": -117.3096761, 
      "object_id": 205, 
      "place": "Second Street Shopping Center, San Bernardino, CA 92410, USA", 
      "content_type": [
        "xtf", 
        "arksetmember"
      ], 
      "lat": 34.103217000000001, 
      "exact": true
    }
  }, 
  {
    "pk": 198, 
    "model": "xtf.geopoint", 
    "fields": {
      "lon": -117.310600876808, 
      "object_id": 206, 
      "place": "Second Street Shopping Center, San Bernardino, CA 92410, USA", 
      "content_type": [
        "xtf", 
        "arksetmember"
      ], 
      "lat": 34.103774047172699, 
      "exact": false
    }
  }, 
  {
    "pk": 199, 
    "model": "xtf.geopoint", 
    "fields": {
      "lon": -117.1592601, 
      "object_id": 207, 
      "place": "6th Ave & E St, San Diego, CA 92101, USA", 
      "content_type": [
        "xtf", 
        "arksetmember"
      ], 
      "lat": 32.714665500000002, 
      "exact": true
    }
  }, 
  {
    "pk": 200, 
    "model": "xtf.geopoint", 
    "fields": {
      "lon": -117.160167, 
      "object_id": 208, 
      "place": "5th Ave & Broadway, San Diego, CA 92101, USA", 
      "content_type": [
        "xtf", 
        "arksetmember"
      ], 
      "lat": 32.7157658, 
      "exact": true
    }
  }, 
  {
    "pk": 201, 
    "model": "xtf.geopoint", 
    "fields": {
      "lon": -117.15922329999999, 
      "object_id": 209, 
      "place": "Market St & 6th Ave, San Diego, CA 92101, USA", 
      "content_type": [
        "xtf", 
        "arksetmember"
      ], 
      "lat": 32.711552400000002, 
      "exact": true
    }
  }, 
  {
    "pk": 202, 
    "model": "xtf.geopoint", 
    "fields": {
      "lon": -117.1638043, 
      "object_id": 210, 
      "place": "1st Ave & Broadway, San Diego, CA 92101, USA", 
      "content_type": [
        "xtf", 
        "arksetmember"
      ], 
      "lat": 32.715628000000002, 
      "exact": true
    }
  }, 
  {
    "pk": 203, 
    "model": "xtf.geopoint", 
    "fields": {
      "lon": -117.160177230835, 
      "object_id": 211, 
      "place": "San Diego, CA, USA", 
      "content_type": [
        "xtf", 
        "arksetmember"
      ], 
      "lat": 32.716749470652204, 
      "exact": true
    }
  }, 
  {
    "pk": 204, 
    "model": "xtf.geopoint", 
    "fields": {
      "lon": -117.1462319, 
      "object_id": 212, 
      "place": "El Cajon Blvd & Park Blvd, San Diego, CA 92103, USA", 
      "content_type": [
        "xtf", 
        "arksetmember"
      ], 
      "lat": 32.755381900000003, 
      "exact": true
    }
  }, 
  {
    "pk": 205, 
    "model": "xtf.geopoint", 
    "fields": {
      "lon": -117.1601928, 
      "object_id": 213, 
      "place": "1132 5th Ave, San Diego, CA 92101, USA", 
      "content_type": [
        "xtf", 
        "arksetmember"
      ], 
      "lat": 32.717164500000003, 
      "exact": true
    }
  }, 
  {
    "pk": 206, 
    "model": "xtf.geopoint", 
    "fields": {
      "lon": -117.1619871, 
      "object_id": 214, 
      "place": "Broadway & 3rd Ave, San Diego, CA 92101, USA", 
      "content_type": [
        "xtf", 
        "arksetmember"
      ], 
      "lat": 32.7157537, 
      "exact": true
    }
  }, 
  {
    "pk": 207, 
    "model": "xtf.geopoint", 
    "fields": {
      "lon": -117.08025429999999, 
      "object_id": 215, 
      "place": "292 3rd Ave, Chula Vista, CA 91910, USA", 
      "content_type": [
        "xtf", 
        "arksetmember"
      ], 
      "lat": 32.641629999999999, 
      "exact": true
    }
  }, 
  {
    "pk": 208, 
    "model": "xtf.geopoint", 
    "fields": {
      "lon": -117.07995504140899, 
      "object_id": 216, 
      "place": "3rd Ave & F St, Chula Vista, CA 91910, USA", 
      "content_type": [
        "xtf", 
        "arksetmember"
      ], 
      "lat": 32.641119655820603, 
      "exact": false
    }
  }, 
  {
    "pk": 209, 
    "model": "xtf.geopoint", 
    "fields": {
      "lon": -117.0800076, 
      "object_id": 217, 
      "place": "3rd Ave & F St, Chula Vista, CA 91910, USA", 
      "content_type": [
        "xtf", 
        "arksetmember"
      ], 
      "lat": 32.6412665, 
      "exact": true
    }
  }, 
  {
    "pk": 210, 
    "model": "xtf.geopoint", 
    "fields": {
      "lon": -117.1692472, 
      "object_id": 218, 
      "place": "1050 Kettner Blvd, San Diego, CA 92101, USA", 
      "content_type": [
        "xtf", 
        "arksetmember"
      ], 
      "lat": 32.716198400000003, 
      "exact": true
    }
  }, 
  {
    "pk": 211, 
    "model": "xtf.geopoint", 
    "fields": {
      "lon": -117.16922432184199, 
      "object_id": 219, 
      "place": "1050 Kettner Blvd, San Diego, CA 92101, USA", 
      "content_type": [
        "xtf", 
        "arksetmember"
      ], 
      "lat": 32.715905466802901, 
      "exact": true
    }
  }, 
  {
    "pk": 212, 
    "model": "xtf.geopoint", 
    "fields": {
      "lon": -117.1601934, 
      "object_id": 220, 
      "place": "952 5th Ave, San Diego, CA 92101, USA", 
      "content_type": [
        "xtf", 
        "arksetmember"
      ], 
      "lat": 32.715392700000002, 
      "exact": true
    }
  }, 
  {
    "pk": 213, 
    "model": "xtf.geopoint", 
    "fields": {
      "lon": -122.3915939, 
      "object_id": 221, 
      "place": "1344 Market St, Redding, CA 96001, USA", 
      "content_type": [
        "xtf", 
        "arksetmember"
      ], 
      "lat": 40.5856438, 
      "exact": false
    }
  }, 
  {
    "pk": 214, 
    "model": "xtf.geopoint", 
    "fields": {
      "lon": -122.2719529, 
      "object_id": 222, 
      "place": "Dunsmuir, CA, USA", 
      "content_type": [
        "xtf", 
        "arksetmember"
      ], 
      "lat": 41.208208900000002, 
      "exact": false
    }
  }, 
  {
    "pk": 215, 
    "model": "xtf.geopoint", 
    "fields": {
      "lon": -120.542421340942, 
      "object_id": 223, 
      "place": "N Main St & W 4th St, Alturas, CA 96101, USA", 
      "content_type": [
        "xtf", 
        "arksetmember"
      ], 
      "lat": 41.481897731458702, 
      "exact": true
    }
  }, 
  {
    "pk": 216, 
    "model": "xtf.geopoint", 
    "fields": {
      "lon": -121.5558343, 
      "object_id": 224, 
      "place": "1200 Myers St, Oroville, CA 95965, USA", 
      "content_type": [
        "xtf", 
        "arksetmember"
      ], 
      "lat": 39.514501000000003, 
      "exact": true
    }
  }, 
  {
    "pk": 217, 
    "model": "xtf.geopoint", 
    "fields": {
      "lon": -121.83747769999999, 
      "object_id": 225, 
      "place": "Chico, CA, USA", 
      "content_type": [
        "xtf", 
        "arksetmember"
      ], 
      "lat": 39.728494400000002, 
      "exact": false
    }
  }, 
  {
    "pk": 218, 
    "model": "xtf.geopoint", 
    "fields": {
      "lon": -120.6530063, 
      "object_id": 226, 
      "place": "Susanville, CA, USA", 
      "content_type": [
        "xtf", 
        "arksetmember"
      ], 
      "lat": 40.4162842, 
      "exact": false
    }
  }, 
  {
    "pk": 219, 
    "model": "xtf.geopoint", 
    "fields": {
      "lon": -121.00579310000001, 
      "object_id": 227, 
      "place": "Westwood, CA, USA", 
      "content_type": [
        "xtf", 
        "arksetmember"
      ], 
      "lat": 40.305999900000003, 
      "exact": false
    }
  }, 
  {
    "pk": 220, 
    "model": "xtf.geopoint", 
    "fields": {
      "lon": -121.07832670211801, 
      "object_id": 228, 
      "place": "Auburn, CA, USA", 
      "content_type": [
        "xtf", 
        "arksetmember"
      ], 
      "lat": 38.895867715769597, 
      "exact": false
    }
  }, 
  {
    "pk": 221, 
    "model": "xtf.geopoint", 
    "fields": {
      "lon": -121.0610606, 
      "object_id": 229, 
      "place": "Grass Valley, CA, USA", 
      "content_type": [
        "xtf", 
        "arksetmember"
      ], 
      "lat": 39.219060800000001, 
      "exact": false
    }
  }, 
  {
    "pk": 222, 
    "model": "xtf.geopoint", 
    "fields": {
      "lon": -121.0620418, 
      "object_id": 230, 
      "place": "E Main St & S Auburn St, Grass Valley, CA 95945, USA", 
      "content_type": [
        "xtf", 
        "arksetmember"
      ], 
      "lat": 39.219164900000003, 
      "exact": true
    }
  }, 
  {
    "pk": 223, 
    "model": "xtf.geopoint", 
    "fields": {
      "lon": -120.4015153, 
      "object_id": 231, 
      "place": "Washington St, Sonora, CA 95370, USA", 
      "content_type": [
        "xtf", 
        "arksetmember"
      ], 
      "lat": 38.033739300000001, 
      "exact": true
    }
  }, 
  {
    "pk": 224, 
    "model": "xtf.geopoint", 
    "fields": {
      "lon": -121.504364, 
      "object_id": 232, 
      "place": "6th St, Sacramento, CA, USA", 
      "content_type": [
        "xtf", 
        "arksetmember"
      ], 
      "lat": 38.568799499999997, 
      "exact": false
    }
  }, 
  {
    "pk": 225, 
    "model": "xtf.geopoint", 
    "fields": {
      "lon": -121.494948863983, 
      "object_id": 233, 
      "place": "1315 10th St, Sacramento, CA 95814, USA", 
      "content_type": [
        "xtf", 
        "arksetmember"
      ], 
      "lat": 38.576839652664098, 
      "exact": true
    }
  }, 
  {
    "pk": 226, 
    "model": "xtf.geopoint", 
    "fields": {
      "lon": -121.59015549999999, 
      "object_id": 234, 
      "place": "E St & 3rd St, Marysville, CA 95901, USA", 
      "content_type": [
        "xtf", 
        "arksetmember"
      ], 
      "lat": 39.138007299999998, 
      "exact": true
    }
  }, 
  {
    "pk": 227, 
    "model": "xtf.geopoint", 
    "fields": {
      "lon": -121.5883652, 
      "object_id": 235, 
      "place": "1st St & D St, Marysville, CA 95901, USA", 
      "content_type": [
        "xtf", 
        "arksetmember"
      ], 
      "lat": 39.135902100000003, 
      "exact": true
    }
  }, 
  {
    "pk": 228, 
    "model": "xtf.geopoint", 
    "fields": {
      "lon": -121.58869900000001, 
      "object_id": 236, 
      "place": "3rd St & D St, Marysville, CA 95901, USA", 
      "content_type": [
        "xtf", 
        "arksetmember"
      ], 
      "lat": 39.138133600000003, 
      "exact": true
    }
  }, 
  {
    "pk": 229, 
    "model": "xtf.geopoint", 
    "fields": {
      "lon": -121.0160594, 
      "object_id": 237, 
      "place": "Nevada City, CA, USA", 
      "content_type": [
        "xtf", 
        "arksetmember"
      ], 
      "lat": 39.261560600000003, 
      "exact": false
    }
  }, 
  {
    "pk": 230, 
    "model": "xtf.geopoint", 
    "fields": {
      "lon": -119.79248106479599, 
      "object_id": 238, 
      "place": "Mariposa St & Broadway St, Fresno, CA 93721, USA", 
      "content_type": [
        "xtf", 
        "arksetmember"
      ], 
      "lat": 36.734064925257798, 
      "exact": true
    }
  }, 
  {
    "pk": 231, 
    "model": "xtf.geopoint", 
    "fields": {
      "lon": -119.7924799, 
      "object_id": 239, 
      "place": "Mariposa St & Broadway St, Fresno, CA 93721, USA", 
      "content_type": [
        "xtf", 
        "arksetmember"
      ], 
      "lat": 36.734340099999997, 
      "exact": true
    }
  }, 
  {
    "pk": 232, 
    "model": "xtf.geopoint", 
    "fields": {
      "lon": -119.7912366, 
      "object_id": 240, 
      "place": "1886 Tulare St, Fresno, CA 93721, USA", 
      "content_type": [
        "xtf", 
        "arksetmember"
      ], 
      "lat": 36.732992799999998, 
      "exact": true
    }
  }, 
  {
    "pk": 233, 
    "model": "xtf.geopoint", 
    "fields": {
      "lon": -119.7890471, 
      "object_id": 241, 
      "place": "Kern St & Fulton Mall, Fresno, CA 93721, USA", 
      "content_type": [
        "xtf", 
        "arksetmember"
      ], 
      "lat": 36.7329194, 
      "exact": true
    }
  }, 
  {
    "pk": 234, 
    "model": "xtf.geopoint", 
    "fields": {
      "lon": -119.7901902, 
      "object_id": 242, 
      "place": "Fresno St & L St, Fresno, CA 93724, USA", 
      "content_type": [
        "xtf", 
        "arksetmember"
      ], 
      "lat": 36.737313700000001, 
      "exact": true
    }
  }, 
  {
    "pk": 235, 
    "model": "xtf.geopoint", 
    "fields": {
      "lon": -119.7850645, 
      "object_id": 243, 
      "place": "P St & Mariposa Mall, Fresno, CA 93721, USA", 
      "content_type": [
        "xtf", 
        "arksetmember"
      ], 
      "lat": 36.739221100000002, 
      "exact": true
    }
  }, 
  {
    "pk": 236, 
    "model": "xtf.geopoint", 
    "fields": {
      "lon": -119.01639, 
      "object_id": 244, 
      "place": "W Olive Ave & S Main St, Porterville, CA 93257, USA", 
      "content_type": [
        "xtf", 
        "arksetmember"
      ], 
      "lat": 36.0651042, 
      "exact": false
    }
  }, 
  {
    "pk": 237, 
    "model": "xtf.geopoint", 
    "fields": {
      "lon": -119.01625249999999, 
      "object_id": 245, 
      "place": "N Main St & E Oak Ave, Porterville, CA 93257, USA", 
      "content_type": [
        "xtf", 
        "arksetmember"
      ], 
      "lat": 36.067911500000001, 
      "exact": true
    }
  }, 
  {
    "pk": 238, 
    "model": "xtf.geopoint", 
    "fields": {
      "lon": -119.0162139, 
      "object_id": 246, 
      "place": "N Main St & W Mill Ave, Porterville, CA 93257, USA", 
      "content_type": [
        "xtf", 
        "arksetmember"
      ], 
      "lat": 36.068801700000002, 
      "exact": true
    }
  }, 
  {
    "pk": 239, 
    "model": "xtf.geopoint", 
    "fields": {
      "lon": -120.360277, 
      "object_id": 247, 
      "place": "Elm Ave & N 5th St, Coalinga, CA 93210, USA", 
      "content_type": [
        "xtf", 
        "arksetmember"
      ], 
      "lat": 36.139692799999999, 
      "exact": true
    }
  }, 
  {
    "pk": 240, 
    "model": "xtf.geopoint", 
    "fields": {
      "lon": -119.2905804, 
      "object_id": 248, 
      "place": "220 E Main St, Visalia, CA 93291, USA", 
      "content_type": [
        "xtf", 
        "arksetmember"
      ], 
      "lat": 36.330193999999999, 
      "exact": true
    }
  }, 
  {
    "pk": 241, 
    "model": "xtf.geopoint", 
    "fields": {
      "lon": -119.7090366, 
      "object_id": 249, 
      "place": "11185 14th Ave, Armona, CA 93202, USA", 
      "content_type": [
        "xtf", 
        "arksetmember"
      ], 
      "lat": 36.310894500000003, 
      "exact": true
    }
  }, 
  {
    "pk": 242, 
    "model": "xtf.geopoint", 
    "fields": {
      "lon": -119.6456665, 
      "object_id": 250, 
      "place": "N Douty St & E 7th St, Hanford, CA 93230, USA", 
      "content_type": [
        "xtf", 
        "arksetmember"
      ], 
      "lat": 36.326631499999998, 
      "exact": true
    }
  }, 
  {
    "pk": 243, 
    "model": "xtf.geopoint", 
    "fields": {
      "lon": -119.3473379, 
      "object_id": 251, 
      "place": "Tulare, CA, USA", 
      "content_type": [
        "xtf", 
        "arksetmember"
      ], 
      "lat": 36.207728799999998, 
      "exact": false
    }
  }, 
  {
    "pk": 244, 
    "model": "xtf.geopoint", 
    "fields": {
      "lon": -119.01871250000001, 
      "object_id": 252, 
      "place": "Bakersfield, CA, USA", 
      "content_type": [
        "xtf", 
        "arksetmember"
      ], 
      "lat": 35.3732921, 
      "exact": false
    }
  }, 
  {
    "pk": 245, 
    "model": "xtf.geopoint", 
    "fields": {
      "lon": -119.0386786, 
      "object_id": 253, 
      "place": "Oak St & 19th St, Bakersfield, CA 93301, USA", 
      "content_type": [
        "xtf", 
        "arksetmember"
      ], 
      "lat": 35.3762677, 
      "exact": true
    }
  }, 
  {
    "pk": 246, 
    "model": "xtf.geopoint", 
    "fields": {
      "lon": -119.0200794, 
      "object_id": 254, 
      "place": "Eye St & 18th St, Bakersfield, CA 93301, USA", 
      "content_type": [
        "xtf", 
        "arksetmember"
      ], 
      "lat": 35.3752608, 
      "exact": true
    }
  }, 
  {
    "pk": 247, 
    "model": "xtf.geopoint", 
    "fields": {
      "lon": -118.8540933, 
      "object_id": 255, 
      "place": "Kern River, Bakersfield, CA 93306, USA", 
      "content_type": [
        "xtf", 
        "arksetmember"
      ], 
      "lat": 35.437674100000002, 
      "exact": false
    }
  }, 
  {
    "pk": 248, 
    "model": "xtf.geopoint", 
    "fields": {
      "lon": -118.200309, 
      "object_id": 258, 
      "place": "246 N Edwards St, Independence, CA 93526, USA", 
      "content_type": [
        "xtf", 
        "arksetmember"
      ], 
      "lat": 36.804195999999997, 
      "exact": true
    }
  }, 
  {
    "pk": 249, 
    "model": "xtf.geopoint", 
    "fields": {
      "lon": -119.0122222, 
      "object_id": 259, 
      "place": "Bodie, CA, USA", 
      "content_type": [
        "xtf", 
        "arksetmember"
      ], 
      "lat": 38.212222199999999, 
      "exact": false
    }
  }, 
  {
    "pk": 250, 
    "model": "xtf.geopoint", 
    "fields": {
      "lon": -119.1928451, 
      "object_id": 260, 
      "place": "Waugh Lake, Mono South, CA, USA", 
      "content_type": [
        "xtf", 
        "arksetmember"
      ], 
      "lat": 37.751371200000001, 
      "exact": true
    }
  }, 
  {
    "pk": 251, 
    "model": "xtf.geopoint", 
    "fields": {
      "lon": -119.1426455, 
      "object_id": 261, 
      "place": "Gem Lake 104-037 Dam, Mono South, CA, USA", 
      "content_type": [
        "xtf", 
        "arksetmember"
      ], 
      "lat": 37.7515979, 
      "exact": true
    }
  }, 
  {
    "pk": 252, 
    "model": "xtf.geopoint", 
    "fields": {
      "lon": -119.228525, 
      "object_id": 262, 
      "place": "278 Main St, Bridgeport, CA 93517, USA", 
      "content_type": [
        "xtf", 
        "arksetmember"
      ], 
      "lat": 38.256244000000002, 
      "exact": true
    }
  }, 
  {
    "pk": 253, 
    "model": "xtf.geopoint", 
    "fields": {
      "lon": -119.2313889, 
      "object_id": 263, 
      "place": "Bridgeport, CA, USA", 
      "content_type": [
        "xtf", 
        "arksetmember"
      ], 
      "lat": 38.255833299999999, 
      "exact": false
    }
  }, 
  {
    "pk": 254, 
    "model": "xtf.geopoint", 
    "fields": {
      "lon": -118.3453533, 
      "object_id": 264, 
      "place": "Main St, Bishop, CA 93514, USA", 
      "content_type": [
        "xtf", 
        "arksetmember"
      ], 
      "lat": 37.400777900000001, 
      "exact": false
    }
  }, 
  {
    "pk": 255, 
    "model": "xtf.geopoint", 
    "fields": {
      "lon": -118.06286540000001, 
      "object_id": 265, 
      "place": "Lone Pine, CA, USA", 
      "content_type": [
        "xtf", 
        "arksetmember"
      ], 
      "lat": 36.606044400000002, 
      "exact": false
    }
  }, 
  {
    "pk": 256, 
    "model": "xtf.geopoint", 
    "fields": {
      "lon": -119.96986870000001, 
      "object_id": 266, 
      "place": "Charles St, Mariposa, CA 95338, USA", 
      "content_type": [
        "xtf", 
        "arksetmember"
      ], 
      "lat": 37.489918699999997, 
      "exact": false
    }
  }, 
  {
    "pk": 257, 
    "model": "xtf.geopoint", 
    "fields": {
      "lon": -119.6565083, 
      "object_id": 267, 
      "place": "8308 Wawona Rd, Yosemite National Park, CA 95389, USA", 
      "content_type": [
        "xtf", 
        "arksetmember"
      ], 
      "lat": 37.536129500000001, 
      "exact": true
    }
  }, 
  {
    "pk": 258, 
    "model": "xtf.geopoint", 
    "fields": {
      "lon": -119.5758333, 
      "object_id": 268, 
      "place": "Yosemite National Park, CA 95389, USA", 
      "content_type": [
        "xtf", 
        "arksetmember"
      ], 
      "lat": 37.743333300000003, 
      "exact": false
    }
  }, 
  {
    "pk": 259, 
    "model": "xtf.geopoint", 
    "fields": {
      "lon": -120.145798, 
      "object_id": 269, 
      "place": "Tahoe City, CA 96146, USA", 
      "content_type": [
        "xtf", 
        "arksetmember"
      ], 
      "lat": 39.169029000000002, 
      "exact": false
    }
  }, 
  {
    "pk": 260, 
    "model": "xtf.geopoint", 
    "fields": {
      "lon": -117.02296, 
      "object_id": 270, 
      "place": "Barstow Rd & E Main St, Barstow, CA 92311, USA", 
      "content_type": [
        "xtf", 
        "arksetmember"
      ], 
      "lat": 34.898732199999998, 
      "exact": false
    }
  }, 
  {
    "pk": 261, 
    "model": "xtf.geopoint", 
    "fields": {
      "lon": -117.018168, 
      "object_id": 272, 
      "place": "750 E Main St, Barstow, CA 92311, USA", 
      "content_type": [
        "xtf", 
        "arksetmember"
      ], 
      "lat": 34.897832000000001, 
      "exact": true
    }
  }, 
  {
    "pk": 262, 
    "model": "xtf.geopoint", 
    "fields": {
      "lon": -116.2155619, 
      "object_id": 273, 
      "place": "Indio, CA, USA", 
      "content_type": [
        "xtf", 
        "arksetmember"
      ], 
      "lat": 33.7205771, 
      "exact": false
    }
  }, 
  {
    "pk": 263, 
    "model": "xtf.geopoint", 
    "fields": {
      "lon": -116.22037, 
      "object_id": 274, 
      "place": "45524 Oasis St, Indio, CA 92201, USA", 
      "content_type": [
        "xtf", 
        "arksetmember"
      ], 
      "lat": 33.717987999999998, 
      "exact": false
    }
  }, 
  {
    "pk": 264, 
    "model": "xtf.geopoint", 
    "fields": {
      "lon": -116.21621131897, 
      "object_id": 275, 
      "place": "Indio, CA, USA", 
      "content_type": [
        "xtf", 
        "arksetmember"
      ], 
      "lat": 33.7186463630308, 
      "exact": false
    }
  }, 
  {
    "pk": 265, 
    "model": "xtf.geopoint", 
    "fields": {
      "lon": -116.1808144, 
      "object_id": 276, 
      "place": "U.S. 86 & 66th Ave & Harrison St, Thermal, CA 92274, USA", 
      "content_type": [
        "xtf", 
        "arksetmember"
      ], 
      "lat": 33.5690557, 
      "exact": true
    }
  }, 
  {
    "pk": 266, 
    "model": "xtf.geopoint", 
    "fields": {
      "lon": -116.545608043671, 
      "object_id": 277, 
      "place": "Palm Springs, CA, USA", 
      "content_type": [
        "xtf", 
        "arksetmember"
      ], 
      "lat": 33.829606455608598, 
      "exact": false
    }
  }, 
  {
    "pk": 267, 
    "model": "xtf.geopoint", 
    "fields": {
      "lon": -116.5017453, 
      "object_id": 278, 
      "place": "Palm Dr, Desert Hot Springs, CA, USA", 
      "content_type": [
        "xtf", 
        "arksetmember"
      ], 
      "lat": 33.930458899999998, 
      "exact": true
    }
  }, 
  {
    "pk": 268, 
    "model": "xtf.geopoint", 
    "fields": {
      "lon": -116.5452921, 
      "object_id": 279, 
      "place": "Palm Springs, CA, USA", 
      "content_type": [
        "xtf", 
        "arksetmember"
      ], 
      "lat": 33.830296099999998, 
      "exact": false
    }
  }, 
  {
    "pk": 269, 
    "model": "xtf.geopoint", 
    "fields": {
      "lon": -115.56138753891, 
      "object_id": 281, 
      "place": "El Centro, CA, USA", 
      "content_type": [
        "xtf", 
        "arksetmember"
      ], 
      "lat": 32.791802246842003, 
      "exact": false
    }
  }, 
  {
    "pk": 270, 
    "model": "xtf.geopoint", 
    "fields": {
      "lon": -115.56305140000001, 
      "object_id": 282, 
      "place": "El Centro, CA, USA", 
      "content_type": [
        "xtf", 
        "arksetmember"
      ], 
      "lat": 32.792000000000002, 
      "exact": false
    }
  }, 
  {
    "pk": 271, 
    "model": "xtf.geopoint", 
    "fields": {
      "lon": -123.0172227, 
      "object_id": 283, 
      "place": "Cloverdale, CA, USA", 
      "content_type": [
        "xtf", 
        "arksetmember"
      ], 
      "lat": 38.805462400000003, 
      "exact": false
    }
  }, 
  {
    "pk": 272, 
    "model": "xtf.geopoint", 
    "fields": {
      "lon": -124.086799621582, 
      "object_id": 284, 
      "place": "Arcata, CA, USA", 
      "content_type": [
        "xtf", 
        "arksetmember"
      ], 
      "lat": 40.869018382858201, 
      "exact": true
    }
  }, 
  {
    "pk": 273, 
    "model": "xtf.geopoint", 
    "fields": {
      "lon": -123.00888860000001, 
      "object_id": 285, 
      "place": "Monte Rio, CA, USA", 
      "content_type": [
        "xtf", 
        "arksetmember"
      ], 
      "lat": 38.465469499999998, 
      "exact": false
    }
  }, 
  {
    "pk": 274, 
    "model": "xtf.geopoint", 
    "fields": {
      "lon": -124.0865046, 
      "object_id": 286, 
      "place": "Arcata Plaza, Arcata, CA 95521, USA", 
      "content_type": [
        "xtf", 
        "arksetmember"
      ], 
      "lat": 40.8685586, 
      "exact": true
    }
  }, 
  {
    "pk": 275, 
    "model": "xtf.geopoint", 
    "fields": {
      "lon": -124.175954, 
      "object_id": 287, 
      "place": "1108 Broadway, Eureka, CA 95501, USA", 
      "content_type": [
        "xtf", 
        "arksetmember"
      ], 
      "lat": 40.796337000000001, 
      "exact": true
    }
  }, 
  {
    "pk": 276, 
    "model": "xtf.geopoint", 
    "fields": {
      "lon": -122.424774169922, 
      "object_id": 288, 
      "place": "18000 Old Winery Rd, Sonoma, CA 95476, USA", 
      "content_type": [
        "xtf", 
        "arksetmember"
      ], 
      "lat": 38.298146515773198, 
      "exact": true
    }
  }, 
  {
    "pk": 277, 
    "model": "xtf.geopoint", 
    "fields": {
      "lon": -123.010053634644, 
      "object_id": 289, 
      "place": "Monte Rio, CA, USA", 
      "content_type": [
        "xtf", 
        "arksetmember"
      ], 
      "lat": 38.466257634392697, 
      "exact": false
    }
  }, 
  {
    "pk": 278, 
    "model": "xtf.geopoint", 
    "fields": {
      "lon": -122.4243421, 
      "object_id": 290, 
      "place": "18000 Old Winery Rd, Sonoma, CA 95476, USA", 
      "content_type": [
        "xtf", 
        "arksetmember"
      ], 
      "lat": 38.298433600000003, 
      "exact": true
    }
  }, 
  {
    "pk": 279, 
    "model": "xtf.geopoint", 
    "fields": {
      "lon": -122.2682892, 
      "object_id": 291, 
      "place": "2100 Shattuck Ave, Berkeley, CA 94704, USA", 
      "content_type": [
        "xtf", 
        "arksetmember"
      ], 
      "lat": 37.871122100000001, 
      "exact": true
    }
  }, 
  {
    "pk": 280, 
    "model": "xtf.geopoint", 
    "fields": {
      "lon": -122.4034248, 
      "object_id": 292, 
      "place": "Market St & Kearny St, San Francisco, CA 94103, USA", 
      "content_type": [
        "xtf", 
        "arksetmember"
      ], 
      "lat": 37.787666399999999, 
      "exact": true
    }
  }, 
  {
    "pk": 281, 
    "model": "xtf.geopoint", 
    "fields": {
      "lon": -121.88491980000001, 
      "object_id": 293, 
      "place": "1 Washington Square, San Jose, CA 95112, USA", 
      "content_type": [
        "xtf", 
        "arksetmember"
      ], 
      "lat": 37.3348412, 
      "exact": false
    }
  }, 
  {
    "pk": 282, 
    "model": "xtf.geopoint", 
    "fields": {
      "lon": -122.2258109, 
      "object_id": 294, 
      "place": "International Blvd & Fruitvale Ave, Oakland, CA 94601, USA", 
      "content_type": [
        "xtf", 
        "arksetmember"
      ], 
      "lat": 37.777664299999998, 
      "exact": true
    }
  }, 
  {
    "pk": 283, 
    "model": "xtf.geopoint", 
    "fields": {
      "lon": -122.403842, 
      "object_id": 295, 
      "place": "Kearny St & Sutter St, San Francisco, CA 94108, USA", 
      "content_type": [
        "xtf", 
        "arksetmember"
      ], 
      "lat": 37.789828999999997, 
      "exact": true
    }
  }, 
  {
    "pk": 284, 
    "model": "xtf.geopoint", 
    "fields": {
      "lon": -121.87808200000001, 
      "object_id": 296, 
      "place": "281 S 9th St, San Jose, CA 95112, USA", 
      "content_type": [
        "xtf", 
        "arksetmember"
      ], 
      "lat": 37.334949899999998, 
      "exact": true
    }
  }, 
  {
    "pk": 285, 
    "model": "xtf.geopoint", 
    "fields": {
      "lon": -121.91449179999999, 
      "object_id": 297, 
      "place": "The Alameda & Hester Ave, San Jose, CA 95126, USA", 
      "content_type": [
        "xtf", 
        "arksetmember"
      ], 
      "lat": 37.3335972, 
      "exact": true
    }
  }, 
  {
    "pk": 286, 
    "model": "xtf.geopoint", 
    "fields": {
      "lon": -122.4066531, 
      "object_id": 298, 
      "place": "Jackson St & Grant Ave, San Francisco, CA 94133, USA", 
      "content_type": [
        "xtf", 
        "arksetmember"
      ], 
      "lat": 37.796028100000001, 
      "exact": true
    }
  }, 
  {
    "pk": 287, 
    "model": "xtf.geopoint", 
    "fields": {
      "lon": -121.5679835, 
      "object_id": 299, 
      "place": "Monterey Rd & W 7th St, Gilroy, CA 95020, USA", 
      "content_type": [
        "xtf", 
        "arksetmember"
      ], 
      "lat": 37.005189899999998, 
      "exact": false
    }
  }, 
  {
    "pk": 288, 
    "model": "xtf.geopoint", 
    "fields": {
      "lon": -121.56779766082801, 
      "object_id": 300, 
      "place": "Monterey Rd & W 7th St, Gilroy, CA 95020, USA", 
      "content_type": [
        "xtf", 
        "arksetmember"
      ], 
      "lat": 37.004968849747598, 
      "exact": false
    }
  }, 
  {
    "pk": 289, 
    "model": "xtf.geopoint", 
    "fields": {
      "lon": -122.4835193, 
      "object_id": 301, 
      "place": "Golden Gate Park, San Francisco, CA, USA", 
      "content_type": [
        "xtf", 
        "arksetmember"
      ], 
      "lat": 37.769039999999997, 
      "exact": false
    }
  }, 
  {
    "pk": 290, 
    "model": "xtf.geopoint", 
    "fields": {
      "lon": -122.2681906, 
      "object_id": 302, 
      "place": "Broadway & 20th St, Oakland, CA 94612, USA", 
      "content_type": [
        "xtf", 
        "arksetmember"
      ], 
      "lat": 37.8090318, 
      "exact": false
    }
  }, 
  {
    "pk": 291, 
    "model": "xtf.geopoint", 
    "fields": {
      "lon": -119.1798335, 
      "object_id": 303, 
      "place": "W 5th St & S B St, Oxnard, CA 93030, USA", 
      "content_type": [
        "xtf", 
        "arksetmember"
      ], 
      "lat": 34.197597899999998, 
      "exact": true
    }
  }, 
  {
    "pk": 292, 
    "model": "xtf.geopoint", 
    "fields": {
      "lon": -119.172166585922, 
      "object_id": 304, 
      "place": "Five Points NE, Oxnard, CA, USA", 
      "content_type": [
        "xtf", 
        "arksetmember"
      ], 
      "lat": 34.192609037487202, 
      "exact": false
    }
  }, 
  {
    "pk": 293, 
    "model": "xtf.geopoint", 
    "fields": {
      "lon": -121.6548722, 
      "object_id": 305, 
      "place": "Main St, Salinas, CA 93901, USA", 
      "content_type": [
        "xtf", 
        "arksetmember"
      ], 
      "lat": 36.673768600000002, 
      "exact": false
    }
  }, 
  {
    "pk": 294, 
    "model": "xtf.geopoint", 
    "fields": {
      "lon": -119.1759734, 
      "object_id": 306, 
      "place": "Meta St & E 7th St, Oxnard, CA 93030, USA", 
      "content_type": [
        "xtf", 
        "arksetmember"
      ], 
      "lat": 34.195035900000001, 
      "exact": true
    }
  }, 
  {
    "pk": 295, 
    "model": "xtf.geopoint", 
    "fields": {
      "lon": -119.175975322723, 
      "object_id": 307, 
      "place": "Meta St & E 7th St, Oxnard, CA 93030, USA", 
      "content_type": [
        "xtf", 
        "arksetmember"
      ], 
      "lat": 34.195133763571, 
      "exact": true
    }
  }, 
  {
    "pk": 296, 
    "model": "xtf.geopoint", 
    "fields": {
      "lon": -119.18031000000001, 
      "object_id": 308, 
      "place": "Plaza Park, Oxnard, CA 93030, USA", 
      "content_type": [
        "xtf", 
        "arksetmember"
      ], 
      "lat": 34.197634499999999, 
      "exact": true
    }
  }, 
  {
    "pk": 297, 
    "model": "xtf.geopoint", 
    "fields": {
      "lon": -119.1724978, 
      "object_id": 309, 
      "place": "Five Points NE, Oxnard, CA, USA", 
      "content_type": [
        "xtf", 
        "arksetmember"
      ], 
      "lat": 34.192827600000001, 
      "exact": true
    }
  }, 
  {
    "pk": 298, 
    "model": "xtf.geopoint", 
    "fields": {
      "lon": -118.12086135149001, 
      "object_id": 310, 
      "place": "Los Angeles, CA, USA", 
      "content_type": [
        "xtf", 
        "arksetmember"
      ], 
      "lat": 34.211008076878798, 
      "exact": true
    }
  }, 
  {
    "pk": 299, 
    "model": "xtf.geopoint", 
    "fields": {
      "lon": -118.202316, 
      "object_id": 311, 
      "place": "3609 N Mission Rd, Los Angeles, CA 90031, USA", 
      "content_type": [
        "xtf", 
        "arksetmember"
      ], 
      "lat": 34.067875700000002, 
      "exact": true
    }
  }, 
  {
    "pk": 300, 
    "model": "xtf.geopoint", 
    "fields": {
      "lon": -118.20210520000001, 
      "object_id": 312, 
      "place": "3627 N Mission Rd, Los Angeles, CA 90031, USA", 
      "content_type": [
        "xtf", 
        "arksetmember"
      ], 
      "lat": 34.067975300000001, 
      "exact": true
    }
  }, 
  {
    "pk": 301, 
    "model": "xtf.geopoint", 
    "fields": {
      "lon": -118.49610199999999, 
      "object_id": 313, 
      "place": "200 Santa Monica Pier, Santa Monica, CA 90401, USA", 
      "content_type": [
        "xtf", 
        "arksetmember"
      ], 
      "lat": 34.010084399999997, 
      "exact": true
    }
  }, 
  {
    "pk": 302, 
    "model": "xtf.geopoint", 
    "fields": {
      "lon": -118.25232800000001, 
      "object_id": 314, 
      "place": "315 W 6th St, Los Angeles, CA 90013, USA", 
      "content_type": [
        "xtf", 
        "arksetmember"
      ], 
      "lat": 34.047142000000001, 
      "exact": true
    }
  }, 
  {
    "pk": 303, 
    "model": "xtf.geopoint", 
    "fields": {
      "lon": -118.26458940000001, 
      "object_id": 315, 
      "place": "E Washington Blvd & S Main St, Los Angeles, CA 90015, USA", 
      "content_type": [
        "xtf", 
        "arksetmember"
      ], 
      "lat": 34.031116599999997, 
      "exact": true
    }
  }, 
  {
    "pk": 304, 
    "model": "xtf.geopoint", 
    "fields": {
      "lon": -117.86658009999999, 
      "object_id": 316, 
      "place": "E Santa Ana Blvd & N Bush St, Santa Ana, CA 92701, USA", 
      "content_type": [
        "xtf", 
        "arksetmember"
      ], 
      "lat": 33.749729700000003, 
      "exact": true
    }
  }, 
  {
    "pk": 305, 
    "model": "xtf.geopoint", 
    "fields": {
      "lon": -117.85312999999999, 
      "object_id": 317, 
      "place": "146 S Glassell St, Orange, CA 92866, USA", 
      "content_type": [
        "xtf", 
        "arksetmember"
      ], 
      "lat": 33.786607400000001, 
      "exact": true
    }
  }, 
  {
    "pk": 306, 
    "model": "xtf.geopoint", 
    "fields": {
      "lon": -117.853425, 
      "object_id": 318, 
      "place": "114 N Glassell St, Orange, CA 92866, USA", 
      "content_type": [
        "xtf", 
        "arksetmember"
      ], 
      "lat": 33.788561999999999, 
      "exact": true
    }
  }, 
  {
    "pk": 307, 
    "model": "xtf.geopoint", 
    "fields": {
      "lon": -117.85303, 
      "object_id": 319, 
      "place": "Plaza Square Park, Orange, CA 92866, USA", 
      "content_type": [
        "xtf", 
        "arksetmember"
      ], 
      "lat": 33.787878800000001, 
      "exact": true
    }
  }, 
  {
    "pk": 308, 
    "model": "xtf.geopoint", 
    "fields": {
      "lon": -117.8520406, 
      "object_id": 320, 
      "place": "150 S Orange St, Orange, CA 92866, USA", 
      "content_type": [
        "xtf", 
        "arksetmember"
      ], 
      "lat": 33.7868925, 
      "exact": true
    }
  }, 
  {
    "pk": 309, 
    "model": "xtf.geopoint", 
    "fields": {
      "lon": -117.85234629999999, 
      "object_id": 321, 
      "place": "114 E Chapman Ave, Orange, CA 92866, USA", 
      "content_type": [
        "xtf", 
        "arksetmember"
      ], 
      "lat": 33.787851199999999, 
      "exact": true
    }
  }, 
  {
    "pk": 310, 
    "model": "xtf.geopoint", 
    "fields": {
      "lon": -117.9058599, 
      "object_id": 322, 
      "place": "S Atchison St, Anaheim, CA 92805, USA", 
      "content_type": [
        "xtf", 
        "arksetmember"
      ], 
      "lat": 33.8336367, 
      "exact": false
    }
  }, 
  {
    "pk": 311, 
    "model": "xtf.geopoint", 
    "fields": {
      "lon": -117.9177009, 
      "object_id": 323, 
      "place": "231 W Lincoln Ave, Anaheim, CA 92805, USA", 
      "content_type": [
        "xtf", 
        "arksetmember"
      ], 
      "lat": 33.835175399999997, 
      "exact": true
    }
  }, 
  {
    "pk": 312, 
    "model": "xtf.geopoint", 
    "fields": {
      "lon": -117.9165388, 
      "object_id": 324, 
      "place": "218 W Lincoln Ave, Anaheim, CA 92805, USA", 
      "content_type": [
        "xtf", 
        "arksetmember"
      ], 
      "lat": 33.835731000000003, 
      "exact": true
    }
  }, 
  {
    "pk": 313, 
    "model": "xtf.geopoint", 
    "fields": {
      "lon": -117.90265840000001, 
      "object_id": 325, 
      "place": "E Lincoln Ave & S East St, Anaheim, CA 92805, USA", 
      "content_type": [
        "xtf", 
        "arksetmember"
      ], 
      "lat": 33.838033600000003, 
      "exact": true
    }
  },